"Search Parameters"	"Year"	"Mo"	"Dy"	"Hr"	"Mn"	"Sec"	"Tsunami Event Validity"	"Tsunami Cause Code"	"Tsu Src"	"Earthquake Magnitude"	"Vol"	"More Info"	"Doubtful Runup"	"Country"	"Area"	"Location Name"	"Latitude"	"Longitude"	"Distance From Source (km)"	"Initial Wave Arrival Day"	"Initial Wave Arrival Hour"	"Initial Wave Arrival Minute"	"Travel Hours"	"Travel Minutes"	"Max Wave Arrival Day"	"Max Wave Arrival Hour"	"Max Wave Arrival Minute"	"Maximum Water Height (m)"	"Max Inundation Distance (m)"	"Measurement Type"	"Period"	"First Motion"	"Deaths"	"Death Description"	"Missing"	"Missing Description"	"Injuries"	"Injuries Description"	"Damage $Mil"	"Damage Description"	"Houses Destroyed"	"Houses Destroyed Description"	"Houses Damaged"	"Houses Damaged Description"
"[""1993 <= Year >= 2020""]"																																												
	1993	2	7	13	27	42	4	1	2215	6.3			"n"	"JAPAN"	"ISHIKAWA"	"WAZIMA"	37.4	136.9	40.059									0.5		2														
	1993	3	12	14	1	35.4	3	1	5602	6.4			"n"	"WALLIS AND FUTUNA (FRENCH TERRITORY)"		"LEAVA BAY, FUTUNA"	-14.29	-178.16	14.456											1										1				
	1993	6	8	13	3	36.4	4	1	2218	7.5			"n"	"USA"	"HI"	"HALEIWA, OAHU, HI"	21.593	-158.1055	5021.688									0.03		2														
	1993	6	8	13	3	36.4	4	1	2218	7.5			"n"	"USA TERRITORY"	"UM"	"WAKE ISLAND"	19.29	166.6183	3625.88									0.02		2														
	1993	6	8	13	3	36.4	4	1	2218	7.5			"n"	"USA"	"HI"	"HILO, HAWAII, HI"	19.7303	-155.0553	5379.899									0.06		2														
	1993	6	8	13	3	36.4	4	1	2218	7.5			"n"	"USA TERRITORY"	"HI"	"MIDWAY ISLANDS"	28.215	-177.361	3291.048	8	17	37	4	34				0.05		2														
	1993	6	8	13	3	36.4	4	1	2218	7.5			"n"	"USA"	"AK"	"SHEMYA ISLAND, AK"	52.731	174.103	1128.399									0.05		2														
	1993	6	8	13	3	36.4	4	1	2218	7.5			"n"	"RUSSIA"	"KAMCHATKA"	"PETROPAVLOVSK, KAMCHATKA"	53.01667	158.65	207.884									0.1		2														
	1993	6	18	11	52	54.8	1	1	5515	6.6			"n"	"NEW ZEALAND"	"AUCKLAND"	"AUCKLAND"	-36.85	174.78	1181.414									0.1		1														
	1993	7	12	13	17	11.9	4	1	2219	7.7			"n"	"SOUTH KOREA"		"PUSAN"	35.099358	129.035408	1229.485	13	1	35						0.12		2	18.5													
	1993	7	12	13	17	11.9	4	1	2219	7.7			"n"	"SOUTH KOREA"		"SACHUNJIN"	37.835	128.87916667	1037.462									1.46		4														
	1993	7	12	13	17	11.9	4	1	2219	7.7			"n"	"SOUTH KOREA"		"SAJIN"	38.22333333	128.59027778	1034.019									2.22		4														
	1993	7	12	13	17	11.9	4	1	2219	7.7			"n"	"SOUTH KOREA"		"HOSAN"	37.16111111	129.35	1050.501									1.38		4														
	1993	7	12	13	17	11.9	4	1	2219	7.7			"n"	"SOUTH KOREA"		"BUGU"	37.1	129.37555556	1053.142									2.57		4														
	1993	7	12	13	17	11.9	4	1	2219	7.7			"n"	"JAPAN"	"HOKKAIDO"	"ABURA"	42.5	139.85	66.221									5.6		1														
	1993	7	12	13	17	11.9	4	1	2219	7.7			"n"	"JAPAN"	"HOKKAIDO"	"IRIKA"	43.367	140.483	119.343									2.5		1														
	1993	7	12	13	17	11.9	4	1	2219	7.7			"n"	"JAPAN"	"HOKKAIDO"	"KAITORIMA"	42.067	139.433	89.225									6.3		1														
	1993	7	12	13	17	11.9	4	1	2219	7.7			"n"	"JAPAN"	"HOKKAIDO"	"KOBECHANAIBASHI"	42.747	140.145	78.408									5.8		1														
	1993	7	12	13	17	11.9	4	1	2219	7.7			"n"	"JAPAN"	"HOKKAIDO"	"MATSUMAE"	41.417	140.1	175.908									1.06		2														
	1993	7	12	13	17	11.9	4	1	2219	7.7			"n"	"JAPAN"	"HOKKAIDO"	"MOMBETSU"	44.35	143.367	375.571									0.1		2														
	1993	7	12	13	17	11.9	4	1	2219	7.7			"n"	"JAPAN"	"KYOTO"	"MAIZURU"	35.483	135.383	881.638									0.51		2														
	1993	7	12	13	17	11.9	4	1	2219	7.7			"n"	"JAPAN"	"NAGASAKI"	"IZUHARA"	34.2	129.3	1289.269									0.21		2														
	1993	7	12	13	17	11.9	4	1	2219	7.7			"n"	"JAPAN"	"NIIGATA"	"NIIGATAKO (HIGASHI)"	37.983	139.217	540.559									0.33		2														
	1993	7	12	13	17	11.9	4	1	2219	7.7			"n"	"JAPAN"	"NIIGATA"	"NIIGATAOOZEKI"	37.9	139	550.023									0.96		2														
	1993	7	12	13	17	11.9	4	1	2219	7.7			"n"	"JAPAN"	"SAGA"	"KARATSUKO"	33.467	129.967	1317.058											2														
	1993	7	12	13	17	11.9	4	1	2219	7.7			"n"	"JAPAN"	"YAMAGATA"	"SAKATA"	38.917	139.817	439.988									0.56		2														
	1993	7	12	13	17	11.9	4	1	2219	7.7			"n"	"JAPAN"	"AOMORI"	"AOMORI"	40.833	140.767	259.298									0.26		2			1	1										
	1993	7	12	13	17	11.9	4	1	2219	7.7			"n"	"SOUTH KOREA"		"ULLEUNG-DO ISLAND"	37.5	130.85	925.722	12	23	46						0.47		2	5.4													
	1993	7	12	13	17	11.9	4	1	2219	7.7			"n"	"RUSSIA"	"SAKHALIN"	"KAMENKA, SAKHALIN ISLAND"	46.4	142.3333	466.26									2.79	15	5														
	1993	7	12	13	17	11.9	4	1	2219	7.7			"n"	"SOUTH KOREA"		"SAMCHUK BEACH"	37.46666667	129.16944444	1041.544									2.15		4														
	1993	7	12	13	17	11.9	4	1	2219	7.7			"n"	"SOUTH KOREA"		"DAEPO"	38.1725	128.61	1035.672									1.63		4														
	1993	7	12	13	17	11.9	4	1	2219	7.7			"n"	"SOUTH KOREA"		"GISAMUN"	38.00638889	128.73333333	1037.008									2.26		4														
	1993	7	12	13	17	11.9	4	1	2219	7.7			"n"	"SOUTH KOREA"		"CHUAM"	37.47222222	129.16527778	1041.453									1.77		4														
	1993	7	12	13	17	11.9	4	1	2219	7.7			"n"	"SOUTH KOREA"		"POHANG"	36.032222	129.365	1134.118									0.92		2														
	1993	7	12	13	17	11.9	4	1	2219	7.7			"n"	"JAPAN"	"NIIGATA"	"KASHIWAZAKIKO"	37.367	138.533	611.546									0.54		4														
	1993	7	12	13	17	11.9	4	1	2219	7.7			"n"	"JAPAN"	"NIIGATA"	"NOZUMI"	37.667	138.783	576.704									0.5		4														
	1993	7	12	13	17	11.9	4	1	2219	7.7			"n"	"JAPAN"	"FUKUI"	"TSURUGAKO (KEN)"	35.65	136.25	838.8									0.35		2														
	1993	7	12	13	17	11.9	4	1	2219	7.7			"n"	"JAPAN"	"FUKUOKA"	"MOJI"	33.95	130.967	1220.546									0.17		2														
	1993	7	12	13	17	11.9	4	1	2219	7.7			"n"	"JAPAN"	"HOKKAIDO"	"AINUMA"	42.068	140.053	111.902									0.09		1														
	1993	7	12	13	17	11.9	4	1	2219	7.7			"n"	"JAPAN"	"HOKKAIDO"	"ISHIKARIWANSHINKO"	43.217	141.317	177.486									0.26		2														
	1993	7	12	13	17	11.9	4	1	2219	7.7			"n"	"JAPAN"	"HOKKAIDO"	"KAMINOKUNIKO"	41.801	140.069	137									3		1														
	1993	7	12	13	17	11.9	4	1	2219	7.7			"n"	"JAPAN"	"HOKKAIDO"	"KIYOBEKO"	41.517	140.001	162.38									1.6		1														
	1993	7	12	13	17	11.9	4	1	2219	7.7			"n"	"JAPAN"	"HOKKAIDO"	"OOSAKI"	41.801	140.069	137									2.3		1														
	1993	7	12	13	17	11.9	4	1	2219	7.7			"n"	"JAPAN"	"HOKKAIDO"	"OSHORO"	43.2	140.867	141.528									0.5		2														
	1993	7	12	13	17	11.9	4	1	2219	7.7			"n"	"JAPAN"	"HOKKAIDO"	"TOYOHAMA"	42.035	140.084	116.367									6.5		1														
	1993	7	12	13	17	11.9	4	1	2219	7.7			"n"	"JAPAN"	"NIIGATA"	"HIMEKAWAKO"	37.033	137.833	656.4									0.26		2														
	1993	7	12	13	17	11.9	4	1	2219	7.7			"n"	"JAPAN"	"NIIGATA"	"MATSUGASAKI"	37.95	139.15	544.234									0.26		2														
	1993	7	12	13	17	11.9	4	1	2219	7.7			"n"	"JAPAN"	"HOKKAIDO"	"MURORAN"	42.35	140.95	154.25									0.09		2														
	1993	7	12	13	17	11.9	4	1	2219	7.7			"n"	"JAPAN"	"SHIMANE"	"MISUMI"	34.767	131.917	1096.834									0.54		2														
	1993	7	12	13	17	11.9	4	1	2219	7.7			"n"	"JAPAN"	"TOYAMA"	"TOYAMASHINKO"	36.767	137.117	698.534									0.11		2														
	1993	7	12	13	17	11.9	4	1	2219	7.7			"n"	"JAPAN"	"HOKKAIDO"	"SAKAEHAMAGYOKO"	42.683	139.885	59.324									6		1														
	1993	7	12	13	17	11.9	4	1	2219	7.7			"n"	"RUSSIA"	"PRIMORSKY"	"ENGELM CAPE"	43.208	132.17	573.916									2.2	15	1														
	1993	7	12	13	17	11.9	4	1	2219	7.7			"n"	"RUSSIA"		"ZERKALNAYA"												2.34	146	5														
	1993	7	12	13	17	11.9	4	1	2219	7.7			"n"	"SOUTH KOREA"		"SANCHOK"	37.45	129.165	1042.997									1		2														
	1993	7	12	13	17	11.9	4	1	2219	7.7			"n"	"RUSSIA"	"PRIMORSKY"	"TETYUKHE, RUDNAYA"	44.364	135.818	320.39									3.78	140	5														
	1993	7	12	13	17	11.9	4	1	2219	7.7			"n"	"SOUTH KOREA"		"SAMCHUK PORT"	37.43611111	129.2	1041.521									1.86		4														
	1993	7	12	13	17	11.9	4	1	2219	7.7			"n"	"SOUTH KOREA"		"GUNGCHON"	37.28333333	129.30833333	1044.685									1.74		4														
	1993	7	12	13	17	11.9	4	1	2219	7.7			"n"	"SOUTH KOREA"		"JUKYBUN"	37.05	129.42777778	1053.22									1.43		4														
	1993	7	12	13	17	11.9	4	1	2219	7.7			"n"	"RUSSIA"	"PRIMORSKY"	"NAKHODKA"	42.816667	132.883333	516.101									1		4														
	1993	7	12	13	17	11.9	4	1	2219	7.7			"n"	"RUSSIA"		"PRIMORYE REGION"												6		4														
	1993	7	12	13	17	11.9	4	1	2219	7.7			"n"	"JAPAN"	"HOKKAIDO"	"HAMATSUMAE"	42.07	139.47	89.614									19		1			32	1						1	36	1		
	1993	7	12	13	17	11.9	4	1	2219	7.7			"n"	"JAPAN"	"AOMORI"	"MUTSUOGAWARA"	40.933	141.4	280.709									0.07		2														
	1993	7	12	13	17	11.9	4	1	2219	7.7			"n"	"JAPAN"	"AOMORI"	"OMINATO"	41.25	141.15	240.326									0.35		2														
	1993	7	12	13	17	11.9	4	1	2219	7.7			"n"	"JAPAN"	"HOKKAIDO"	"GORINSAWA"	41.95	140.134	126.362									2.7		1														
	1993	7	12	13	17	11.9	4	1	2219	7.7			"n"	"JAPAN"	"HOKKAIDO"	"KIYOBEKO"	41.517	140.001	162.38									0.8		1														
	1993	7	12	13	17	11.9	4	1	2219	7.7			"n"	"JAPAN"	"HOKKAIDO"	"KUTSUGATAKO"	45.183	141.15	302.736									0.8		2														
	1993	7	12	13	17	11.9	4	1	2219	7.7			"n"	"JAPAN"	"HOKKAIDO"	"MASHIKE"	43.85	141.533	219.505									1.1		1														
	1993	7	12	13	17	11.9	4	1	2219	7.7			"n"	"JAPAN"	"HOKKAIDO"	"OTOBEGYOKO"	41.967	140.133	124.814									2		1														
	1993	7	12	13	17	11.9	4	1	2219	7.7			"n"	"JAPAN"	"HOKKAIDO"	"SHIRAGAMI"	41.419	140.068	174.599									1.1		1														
	1993	7	12	13	17	11.9	4	1	2219	7.7			"n"	"JAPAN"	"HOKKAIDO"	"UTOROKO"	44.067	145	488.568									0.22		2														
	1993	7	12	13	17	11.9	4	1	2219	7.7			"n"	"JAPAN"	"NIIGATA"	"TERADOMARIKO"	37.65	138.767	578.672									0.51		2														
	1993	7	12	13	17	11.9	4	1	2219	7.7			"n"	"JAPAN"	"HOKKAIDO"	"SOUTH OF MONAI, OKUSHIRI ISLAND"	42.09	139.43	86.678									9.35		1														
	1993	7	12	13	17	11.9	4	1	2219	7.7			"n"	"JAPAN"	"HOKKAIDO"	"SOUTH OF OKUSHIRI, OKUSHIRI ISLAND"	42.14	139.52	83.324									1.7		1														
	1993	7	12	13	17	11.9	4	1	2219	7.7			"n"	"JAPAN"	"HOKKAIDO"	"HATSUMATSUMAE, OKUSHIRI ISLAND"	42.07	139.48	89.823									5.35		1														
	1993	7	12	13	17	11.9	4	1	2219	7.7			"n"	"JAPAN"	"TOTTORI"	"TAJIRI"	35.583	134.317	909.907									0.14		2														
	1993	7	12	13	17	11.9	4	1	2219	7.7			"n"	"JAPAN"	"YAMAGUCHI"	"DESHIMATSU"	33.917	130.933	1225.333											2														
	1993	7	12	13	17	11.9	4	1	2219	7.7			"n"	"RUSSIA"	"SAKHALIN"	"KAMENKA, SAKHALIN ISLAND"	46.4	142.3333	466.26											1										1				
	1993	7	12	13	17	11.9	4	1	2219	7.7			"n"	"JAPAN"	"HOKKAIDO"	"OTA BAY"	42.27	139.78	80.358									9		1										1	5	1		
	1993	7	12	13	17	11.9	4	1	2219	7.7			"n"	"SOUTH KOREA"		"ULSAN"	35.53	129.35	1175.012	13	0	33						0.16		2	29.7													
	1993	7	12	13	17	11.9	4	1	2219	7.7			"n"	"JAPAN"	"HOKKAIDO"	"HOKKAIDO"	44	143	333.32									10		1														
	1993	7	12	13	17	11.9	4	1	2219	7.7			"n"	"SOUTH KOREA"		"GUMJIN"	37.64972222	129.0525	1037.345									1.17		4														
	1993	7	12	13	17	11.9	4	1	2219	7.7			"n"	"SOUTH KOREA"		"DONGHAE"	37.49	129.14444444	1041.689									1.76		4														
	1993	7	12	13	17	11.9	4	1	2219	7.7			"n"	"SOUTH KOREA"		"ULLEUNGDO"	37.5	130.866667	924.636									1		4														
	1993	7	12	13	17	11.9	4	1	2219	7.7			"n"	"JAPAN"	"FUKUI"	"MIKUNI"	36.25	136.15	778.119									0.03		2														
	1993	7	12	13	17	11.9	4	1	2219	7.7			"n"	"JAPAN"	"HOKKAIDO"	"ABASHIRI"	44.017	144.283	431.597									0.07		2														
	1993	7	12	13	17	11.9	4	1	2219	7.7			"n"	"JAPAN"	"HOKKAIDO"	"GENNA"	42.001	140.101	120.205									1.6		1														
	1993	7	12	13	17	11.9	4	1	2219	7.7			"n"	"JAPAN"	"HOKKAIDO"	"KINOKO"	41.753	140.068	141.538									0.3		1														
	1993	7	12	13	17	11.9	4	1	2219	7.7			"n"	"JAPAN"	"HOKKAIDO"	"NAGATOYO-TOKOTAN"	42.708	140.07	73.184									5.7		1														
	1993	7	12	13	17	11.9	4	1	2219	7.7			"n"	"JAPAN"	"HOKKAIDO"	"ORITO"	41.402	140.168	179.86									1.1		1														
	1993	7	12	13	17	11.9	4	1	2219	7.7			"n"	"JAPAN"	"HOKKAIDO"	"OTOBE"	41.953	140.133	126.047									1.8		1														
	1993	7	12	13	17	11.9	4	1	2219	7.7			"n"	"JAPAN"	"HOKKAIDO"	"SHIOFUKI"	41.734	140.05	142.628									1.3		1														
	1993	7	12	13	17	11.9	4	1	2219	7.7			"n"	"JAPAN"	"HOKKAIDO"	"TOYOHAMA-KARUUSUKO"	42.728	140.088	74.17									4.4		1														
	1993	7	12	13	17	11.9	4	1	2219	7.7			"n"	"JAPAN"	"HOKKAIDO"	"UDOMARI"	42.35	139.784	73.607									6		1														
	1993	7	12	13	17	11.9	4	1	2219	7.7			"n"	"JAPAN"	"HOKKAIDO"	"YOSHIOKA"	41.45	140.25	178.3									1.3		1														
	1993	7	12	13	17	11.9	4	1	2219	7.7			"n"	"JAPAN"	"ISHIKAWA"	"WAJIMA"	37.4	136.9	636.07									0.97		2														
	1993	7	12	13	17	11.9	4	1	2219	7.7			"n"	"JAPAN"	"HOKKAIDO"	"NORTH OF MONAI, OKUSHIRI ISLAND"	42.15	139.42	79.997									6.5		1														
	1993	7	12	13	17	11.9	4	1	2219	7.7			"n"	"JAPAN"	"HOKKAIDO"	"NORTH OF OKUSHIRI, OKUSHIRI ISLAND"	42.19	139.52	78.076									1.7		1														
	1993	7	12	13	17	11.9	4	1	2219	7.7			"n"	"JAPAN"	"HOKKAIDO"	"INAHO, OKUSHIRI ISLAND"	42.25	139.55	72.785									4.95		1			13	1						2		3		3
	1993	7	12	13	17	11.9	4	1	2219	7.7			"n"	"SOUTH KOREA"		"ALL OF SOUTH KOREA"														1									0.5	1				
	1993	7	12	13	17	11.9	4	1	2219	7.7			"n"	"JAPAN"	"HOKKAIDO"	"HOKKAIDO PREFECTURE"														1									179	4				
	1993	7	12	13	17	11.9	4	1	2219	7.7			"n"	"JAPAN"	"HOKKAIDO"	"OKUSHIRI, OKUSHIRI ISLAND"	42.17	139.52	80.17									32		1														
	1993	7	12	13	17	11.9	4	1	2219	7.7			"n"	"RUSSIA"	"SAKHALIN"	"NEVEL'SK, SAKHALIN"	46.67	141.855	473.634									0.55		2														
	1993	7	12	13	17	11.9	4	1	2219	7.7			"n"	"RUSSIA"		"BELKIN"												0.6		5														
	1993	7	12	13	17	11.9	4	1	2219	7.7			"n"	"RUSSIA"	"PRIMORSKY"	"NAKHODKA"	42.816667	132.883333	516.101									5		4														
	1993	7	12	13	17	11.9	4	1	2219	7.7			"n"	"RUSSIA"	"SAKHALIN"	"SOUTHERN SAKHALIN"	49	143	744.156									4		4														
	1993	7	12	13	17	11.9	4	1	2219	7.7			"n"	"SOUTH KOREA"		"GEOJIN"	38.44555556	128.46138889	1030.296									0.81		4														
	1993	7	12	13	17	11.9	4	1	2219	7.7			"n"	"SOUTH KOREA"		"NAMAE"	37.94138889	128.78833333	1037.15									1.26		4														
	1993	7	12	13	17	11.9	4	1	2219	7.7			"n"	"SOUTH KOREA"		"MUKHO"	37.54722222	129.11833333	1039.619									1.99		4														
	1993	7	12	13	17	11.9	4	1	2219	7.7			"n"	"SOUTH KOREA"		"KANGKEUNG"	37.76	128.9	1040.858									1.1		2														
	1993	7	12	13	17	11.9	4	1	2219	7.7			"n"	"JAPAN"	"AKITA"	"FUNAGAWAKO"	39.867	139.85	335.877									0.56		2														
	1993	7	12	13	17	11.9	4	1	2219	7.7			"n"	"JAPAN"	"AOMORI"	"TAPPI"	41.25	141.383	253.701									0.09		2														
	1993	7	12	13	17	11.9	4	1	2219	7.7			"n"	"JAPAN"	"FUKUI"	"FUKUIKO (KEN)"	36.217	136.133	782.078									0.48		2														
	1993	7	12	13	17	11.9	4	1	2219	7.7			"n"	"JAPAN"	"FUKUOKA"	"HAKATA"	33.617	130.4	1280.498											2														
	1993	7	12	13	17	11.9	4	1	2219	7.7			"n"	"JAPAN"	"HOKKAIDO"	"BIYA"	42.536	139.835	62.91									5.3		1														
	1993	7	12	13	17	11.9	4	1	2219	7.7			"n"	"JAPAN"	"HOKKAIDO"	"HAKODATE"	41.7187	140.7247	178.029									0.35		2														
	1993	7	12	13	17	11.9	4	1	2219	7.7			"n"	"JAPAN"	"HOKKAIDO"	"HARAUTA"	42.683	139.983	66.985									8.51		1														
	1993	7	12	13	17	11.9	4	1	2219	7.7			"n"	"JAPAN"	"HOKKAIDO"	"IWANAIKO"	42.983	140.5	107.395	12	13	37						1.42		2		"R"												
	1993	7	12	13	17	11.9	4	1	2219	7.7			"n"	"JAPAN"	"HOKKAIDO"	"KUMAISHIKO"	42.133	140.983	167.085									2.5		1														
	1993	7	12	13	17	11.9	4	1	2219	7.7			"n"	"JAPAN"	"HOKKAIDO"	"OSHIDOMARIKO"	45.25	141.223	312.089									1.2		1														
	1993	7	12	13	17	11.9	4	1	2219	7.7			"n"	"JAPAN"	"HOKKAIDO"	"RUMOIKO"	43.95	141.633	232.043									0.81		2														
	1993	7	12	13	17	11.9	4	1	2219	7.7			"n"	"JAPAN"	"HOKKAIDO"	"TOYOHAMA"	42.035	140.084	116.367									1.6		1														
	1993	7	12	13	17	11.9	4	1	2219	7.7			"n"	"JAPAN"	"HOKKAIDO"	"UTASHIMAGYOKO"	42.778	140.153	78.606									4.6		1														
	1993	7	12	13	17	11.9	4	1	2219	7.7			"n"	"JAPAN"	"HOKKAIDO"	"WAKKANAI"	45.4	141.683	346.095									0.44		2														
	1993	7	12	13	17	11.9	4	1	2219	7.7			"n"	"JAPAN"	"HYOGO"	"TSUIYAMA"	35.65	134.833	883.43									0.37		2														
	1993	7	12	13	17	11.9	4	1	2219	7.7			"n"	"JAPAN"	"KYOTO"	"MAIZURU (SUIROBU)"	35.45	135.317	887.194									0.45		2														
	1993	7	12	13	17	11.9	4	1	2219	7.7			"n"	"JAPAN"	"NIIGATA"	"NAOETSUKO"	37.183	138.25	634.506									0.45		2														
	1993	7	12	13	17	11.9	4	1	2219	7.7			"n"	"JAPAN"	"HOKKAIDO"	"SOUTH OF INAHO, OKUSHIRI ISLAND"	42.21	139.55	76.884									1.65		1														
	1993	7	12	13	17	11.9	4	1	2219	7.7			"n"	"JAPAN"	"NIIGATA"	"IWAFUNEKO"	38.183	139.433	518.742									0.8		2														
	1993	7	12	13	17	11.9	4	1	2219	7.7			"n"	"JAPAN"	"TOTTORI"	"SAKAI"	35.55	133.25	959.025									0.37		2														
	1993	7	12	13	17	11.9	4	1	2219	7.7			"n"	"JAPAN"	"HOKKAIDO"	"TAISEIKO"	42.218	139.838	87.849									4		1			9	1	1	1	2	1		1		1		1
	1993	7	12	13	17	11.9	4	1	2219	7.7			"n"	"RUSSIA"	"PRIMORSKY"	"GORNOSTAI BAY"	43.115	132.01	586.749									1.5		1														
	1993	7	12	13	17	11.9	4	1	2219	7.7			"n"	"JAPAN"	"HOKKAIDO"	"SOUTH OF MONAI, OKUSHIRI ISLAND"	42.08	139.43	87.762									11.4		1														
	1993	7	12	13	17	11.9	4	1	2219	7.7			"n"	"SOUTH KOREA"		"POHANG"	36.03	129.38	1133.334	13	1	20						0.3		2	21													
	1993	7	12	13	17	11.9	4	1	2219	7.7			"n"	"JAPAN"	"HOKKAIDO"	"INAHO, OKUSHIRI ISLAND"	42.234	139.551	74.452									4.95		1														
	1993	7	12	13	17	11.9	4	1	2219	7.7			"n"	"SOUTH KOREA"		"OSAN"	38.08833333	128.66583333	1036.785									1.26		4														
	1993	7	12	13	17	11.9	4	1	2219	7.7			"n"	"RUSSIA"	"PRIMORSKY"	"NAKHODKA"	42.816667	132.883333	516.101									5		4														
	1993	7	12	13	17	11.9	4	1	2219	7.7			"n"	"SOUTH KOREA"		"JANGHO"	37.29166667	129.31111111	1043.909									1.41		4														
	1993	7	12	13	17	11.9	4	1	2219	7.7			"n"	"NORTH KOREA"		"CHONGJIN PORT"	41.8	129.783333	784.246									2.1		4														
	1993	7	12	13	17	11.9	4	1	2219	7.7			"n"	"SOUTH KOREA"		"MUGHO"	37.550278	129.116389	1039.548									2.77		2														
	1993	7	12	13	17	11.9	4	1	2219	7.7			"n"	"RUSSIA"		"V. PREOBRAZHENYE"	42.9	133.9	432.756									1.25		5														
	1993	7	12	13	17	11.9	4	1	2219	7.7			"n"	"RUSSIA"		"ALL OF RUSSIA"														1									10	3				
	1993	7	12	13	17	11.9	4	1	2219	7.7			"n"	"JAPAN"	"AKITA"	"OGA"	39.933	139.7	326.795									0.5		2														
	1993	7	12	13	17	11.9	4	1	2219	7.7			"n"	"JAPAN"	"AOMORI"	"ASAMUSHI"	40.9	140.867	257.235									0.16		2														
	1993	7	12	13	17	11.9	4	1	2219	7.7			"n"	"JAPAN"	"AOMORI"	"HACHINOHE"	40.533	141.533	322.616									0.05		2														
	1993	7	12	13	17	11.9	4	1	2219	7.7			"n"	"JAPAN"	"SHIMANE"	"SAIGO"	36.2	133.333	893.61									0.29		2														
	1993	7	12	13	17	11.9	4	1	2219	7.7			"n"	"JAPAN"	"HOKKAIDO"	"KAMOENAI"	43.133	140.433	105.553									3.3		1														
	1993	7	12	13	17	11.9	4	1	2219	7.7			"n"	"JAPAN"	"HOKKAIDO"	"KUDO"	42.218	139.838	87.849									5.5		1														
	1993	7	12	13	17	11.9	4	1	2219	7.7			"n"	"JAPAN"	"HOKKAIDO"	"OTARUKO"	43.167	141.033	153.745									0.21		2														
	1993	7	12	13	17	11.9	4	1	2219	7.7			"n"	"JAPAN"	"HOKKAIDO"	"SAKAE"	41.986	140.118	122.385									2.9		1														
	1993	7	12	13	17	11.9	4	1	2219	7.7			"n"	"JAPAN"	"HOKKAIDO"	"YOSHIOKA"	41.45	140.25	178.3									0.87		2														
	1993	7	12	13	17	11.9	4	1	2219	7.7			"n"	"JAPAN"	"ISHIKAWA"	"KANAZAWA"	36.617	136.6	726.975											2														
	1993	7	12	13	17	11.9	4	1	2219	7.7			"n"	"JAPAN"	"NAGASAKI"	"GONOURA"	33.733	129.683	1308.555									0.15		2														
	1993	7	12	13	17	11.9	4	1	2219	7.7			"n"	"JAPAN"	"NIIGATA"	"AWASHIMA"	38.467	139.267	486.868									0.71		2														
	1993	7	12	13	17	11.9	4	1	2219	7.7			"n"	"JAPAN"	"NIIGATA"	"OGI"	37.817	138.283	564.34									0.34		2														
	1993	7	12	13	17	11.9	4	1	2219	7.7			"n"	"JAPAN"	"HOKKAIDO"	"MONAI, OKUSHIRI ISLAND"	42.1	139.433	85.65									6.3		1														
	1993	7	12	13	17	11.9	4	1	2219	7.7			"n"	"JAPAN"	"HOKKAIDO"	"MUENIWA-CAMPSITE, OKUSHIRI ISLAND"	42.12	139.43	83.43									15.3		1														
	1993	7	12	13	17	11.9	4	1	2219	7.7			"n"	"JAPAN"	"AKITA"	"AKITAKO"	39.9	140.067	335.72									0.33		2														
	1993	7	12	13	17	11.9	4	1	2219	7.7			"n"	"RUSSIA"	"PRIMORSKY"	"SOBOL BAY"	43.078	131.96	590.806									1.5		1														
	1993	7	12	13	17	11.9	4	1	2219	7.7			"n"	"JAPAN"	"HOKKAIDO"	"HORONAI, OKUSHIRI ISLAND"	42.191	139.424	75.651									6		1														
	1993	7	12	13	17	11.9	4	1	2219	7.7			"n"	"RUSSIA"	"PRIMORSKY"	"VLADIVOSTOK"	43.165	131.9	595.759									2		4			3	1						1				
	1993	7	12	13	17	11.9	4	1	2219	7.7			"n"	"SOUTH KOREA"		"SOKCHO"	38.20388889	128.59722222	1034.692									0.91		4														
	1993	7	12	13	17	11.9	4	1	2219	7.7			"n"	"SOUTH KOREA"		"SUSAN"	38.09166667	128.65277778	1037.528									1.85		4														
	1993	7	12	13	17	11.9	4	1	2219	7.7			"n"	"SOUTH KOREA"		"GANGMUN"	37.79388889	128.91944444	1037.259									1.87		4														
	1993	7	12	13	17	11.9	4	1	2219	7.7			"n"	"SOUTH KOREA"		"OBUNRI"	37.43333333	129.2	1041.712									1.1		4														
	1993	7	12	13	17	11.9	4	1	2219	7.7			"n"	"SOUTH KOREA"		"SOGCHO"	38.204167	128.591944	1035.061									2.04		2														
	1993	7	12	13	17	11.9	4	1	2219	7.7			"n"	"JAPAN"	"HOKKAIDO"	"MONAI, OKUSHIRI ISLAND"	42.103	139.423	85.143									30.6		1			10	1						1	12	1	12	1
	1993	7	12	13	17	11.9	4	1	2219	7.7			"n"	"JAPAN"	"HOKKAIDO"	"MORIKO"	42.1	140.6	142.368											2														
	1993	7	12	13	17	11.9	4	1	2219	7.7			"n"	"JAPAN"	"HOKKAIDO"	"NAGAISO"	42.134	139.918	99.28									2.61		1														
	1993	7	12	13	17	11.9	4	1	2219	7.7			"n"	"JAPAN"	"HOKKAIDO"	"SUTTSUKO"	42.793	140.237	85.29									5		1														
	1993	7	12	13	17	11.9	4	1	2219	7.7			"n"	"JAPAN"	"HOKKAIDO"	"TOMAKOMAIHIGASHIKO"	42.6	141.817	216.381											2														
	1993	7	12	13	17	11.9	4	1	2219	7.7			"n"	"JAPAN"	"MIYAGI"	"ENOSHIMA"	38.4	141.6	534.388									3.85		2														
	1993	7	12	13	17	11.9	4	1	2219	7.7			"n"	"JAPAN"	"NIIGATA"	"NIIGATAKO (NISHI)"	37.933	139.067	546.217									0.27		2														
	1993	7	12	13	17	11.9	4	1	2219	7.7			"n"	"JAPAN"	"HOKKAIDO"	"B/W MONAI & HORONAI, OKUSHIRI IS"	42.14	139.42	81.079									8.15		1														
	1993	7	12	13	17	11.9	4	1	2219	7.7			"n"	"JAPAN"	"SAGA"	"KARIYA"	33.467	129.85	1323.33											2														
	1993	7	12	13	17	11.9	4	1	2219	7.7			"n"	"JAPAN"	"SHIMANE"	"HAMADA"	34.9	132.067	1076.994									0.28		2														
	1993	7	12	13	17	11.9	4	1	2219	7.7			"n"	"JAPAN"	"TOYAMA"	"TOYAMA"	36.767	137.233	696.075									0.1		2														
	1993	7	12	13	17	11.9	4	1	2219	7.7			"n"	"JAPAN"	"YAMAGATA"	"NEZUGASEKI"	38.567	139.55	476.664									0.3		2														
	1993	7	12	13	17	11.9	4	1	2219	7.7			"n"	"RUSSIA"	"PRIMORSKY"	"CHUMAKI BAY"	43.22	132.2	571.517									2.2	15	1														
	1993	7	12	13	17	11.9	4	1	2219	7.7			"n"	"JAPAN"	"HOKKAIDO"	"SETANA"	42.451	139.851	69.645									8.5		1			4	1	2	1	1	1		1				
	1993	7	12	13	17	11.9	4	1	2219	7.7			"n"	"JAPAN"	"AKITA"	"MINEHAMA"	40.3	140.1	293.159									3.5		1														
	1993	7	12	13	17	11.9	4	1	2219	7.7			"n"	"RUSSIA"	"PRIMORSKY"	"VALENTINE BAY"	43.11	134.32	398.783									4	85	5														
	1993	7	12	13	17	11.9	4	1	2219	7.7			"n"	"RUSSIA"	"PRIMORSKY"	"OLGA"	43.74444	135.284722	332.583									1.5		5														
	1993	7	12	13	17	11.9	4	1	2219	7.7			"n"	"SOUTH KOREA"		"AYAJIN"	38.27055556	128.56027778	1033.367									1.39		4														
	1993	7	12	13	17	11.9	4	1	2219	7.7			"n"	"SOUTH KOREA"		"DAEJIN"	37.57916667	129.5	1010.871									1.56		4														
	1993	7	12	13	17	11.9	4	1	2219	7.7			"n"	"SOUTH KOREA"		"JUMUNJIN"	37.88333333	128.825	1038.225									1.46		4														
	1993	7	12	13	17	11.9	4	1	2219	7.7			"n"	"SOUTH KOREA"		"JUNGDONGJIN"	37.68194444	129.04611111	1035.648									2.01		4														
	1993	7	12	13	17	11.9	4	1	2219	7.7			"n"	"SOUTH KOREA"		"IMWON"	37.21666667	129.35	1046.547									2.39		4														
	1993	7	12	13	17	11.9	4	1	2219	7.7			"n"	"RUSSIA"	"PRIMORSKY"	"VLADIVOSTOK"	43.165	131.9	595.759									0.5		4														
	1993	7	12	13	17	11.9	4	1	2219	7.7			"n"	"JAPAN"	"AKITA"	"NOSHIROKO"	40.217	140	300.116									0.72		2														
	1993	7	12	13	17	11.9	4	1	2219	7.7			"n"	"JAPAN"	"EHIME"	"FUKAURA"	40.65	139.933	252.007									0.25		2														
	1993	7	12	13	17	11.9	4	1	2219	7.7			"n"	"JAPAN"	"HOKKAIDO"	"ATSUSEKO"	42.741	140.119	76.412									5.8		1														
	1993	7	12	13	17	11.9	4	1	2219	7.7			"n"	"JAPAN"	"HOKKAIDO"	"DAINI-SAKAEHAMA"	42.672	139.893	60.342									6.4		1														
	1993	7	12	13	17	11.9	4	1	2219	7.7			"n"	"JAPAN"	"HOKKAIDO"	"ESASHI"	41.867	140.133	133.763	12	13	28						1.75		2		"F"												
	1993	7	12	13	17	11.9	4	1	2219	7.7			"n"	"JAPAN"	"HOKKAIDO"	"HABOROKO"	44.367	141.7	263.041									0.98		2														
	1993	7	12	13	17	11.9	4	1	2219	7.7			"n"	"JAPAN"	"HOKKAIDO"	"KAWAJIRI"	42.383	139.819	72.849									6.2		1														
	1993	7	12	13	17	11.9	4	1	2219	7.7			"n"	"JAPAN"	"HOKKAIDO"	"NAKAUTA"	41.853	140.133	135.042									2.3		1														
	1993	7	12	13	17	11.9	4	1	2219	7.7			"n"	"JAPAN"	"HOKKAIDO"	"ONISHIKA"	44.15	141.667	246.425									0.9		1														
	1993	7	12	13	17	11.9	4	1	2219	7.7			"n"	"JAPAN"	"HOKKAIDO"	"SHIZUURA"	41.484	140.017	166.272									2.4		1														
	1993	7	12	13	17	11.9	4	1	2219	7.7			"n"	"JAPAN"	"HOKKAIDO"	"URAKAWA"	42.167	142.767	303.06									0.07		2														
	1993	7	12	13	17	11.9	4	1	2219	7.7			"n"	"JAPAN"	"ISHIKAWA"	"USHITSUKO"	37.3	137.15	640.558									0.28		2														
	1993	7	12	13	17	11.9	4	1	2219	7.7			"n"	"JAPAN"	"IWATE"	"MIYAKO"	39.65	141.983	425.271									0.05		2														
	1993	7	12	13	17	11.9	4	1	2219	7.7			"n"	"JAPAN"	"NIIGATA"	"RYOTSUKO"	38.083	138.433	533.399									0.64		2														
	1993	7	12	13	17	11.9	4	1	2219	7.7			"n"	"JAPAN"	"HOKKAIDO"	"NORTHEAST OF AONAE, OKUSHIRI ISLAND"	42.08	139.5	89.196									2.4		1														
	1993	7	12	13	17	11.9	4	1	2219	7.7			"n"	"JAPAN"	"TOYAMA"	"FUSHIKIKO"	36.783	137.067	697.915									0.11		2														
	1993	7	12	13	17	11.9	4	1	2219	7.7			"n"	"JAPAN"	"HOKKAIDO"	"AONAE, OKUSHIRI ISLAND"	42.05	139.45	91.378									6.2		1	5		112	3						2	340	2	340	2
	1993	8	7	19	42	41.9	4	1	2220	6.3			"n"	"JAPAN"	"HOKKAIDO"	"ESASHI"	41.867	140.133	27.685									0.16		2														
	1993	8	8	8	34	24.9	4	1	2221	7.8			"n"	"USA"	"HI"	"KAPOHO, HAWAII, HI"	19.4992	-154.8197	6464.742									0.04		2														
	1993	8	8	8	34	24.9	4	1	2221	7.8			"n"	"USA"	"HI"	"NAWILIWILI, KAUAI, HI"	21.927	-159.36	5982.929									0.04		2														
	1993	8	8	8	34	24.9	4	1	2221	7.8			"n"	"JAPAN"	"MIYAZAKI"	"ABURATSU"	31.583	131.417	2473.7									0.46		2														
	1993	8	8	8	34	24.9	4	1	2221	7.8			"n"	"JAPAN"	"SHIZUOKA"	"OMAEZAKI"	34.6083	138.2222	2485.755									0.3		2														
	1993	8	8	8	34	24.9	4	1	2221	7.8			"n"	"USA TERRITORY"	"GU"	"AGANA HARBOR, GUAM"	13.48	144.75	55.372									0.08		2														
	1993	8	8	8	34	24.9	4	1	2221	7.8			"n"	"USA"	"HI"	"HALEIWA, OAHU, HI"	21.593	-158.1055	6113.129									0.07		2														
	1993	8	8	8	34	24.9	4	1	2221	7.8			"n"	"JAPAN"	"KANAGAWA"	"YOKOSUKA"	35.283	139.65	2524.039									0.06		2														
	1993	8	8	8	34	24.9	4	1	2221	7.8			"n"	"JAPAN"	"MIE"	"OWASE"	34.083	136.2	2493.933									0.23		2														
	1993	8	8	8	34	24.9	4	1	2221	7.8			"n"	"JAPAN"	"MIE"	"TOBA"	34.483	136.817	2514.32									0.14		2														
	1993	8	8	8	34	24.9	4	1	2221	7.8			"n"	"JAPAN"	"MIE"	"YOKKAICHIKO"	34.95	136.633	2568.741									0.06		2														
	1993	8	8	8	34	24.9	4	1	2221	7.8			"n"	"JAPAN"	"WAKAYAMA"	"WAKAYAMA"	34.217	135.15	2546.431									0.04		2														
	1993	8	8	8	34	24.9	4	1	2221	7.8			"n"	"USA"	"HI"	"PORT ALLEN, KAUAI, HI"	21.91	-159.58	5960.209									0.1		2														
	1993	8	8	8	34	24.9	4	1	2221	7.8			"n"	"JAPAN"	"BONIN IS, TOKYO"	"CHICHIJIMA ISLAND"	27.0939	142.1947	1585.766									0.34		2														
	1993	8	8	8	34	24.9	4	1	2221	7.8			"n"	"JAPAN"	"WAKAYAMA"	"KUSHIMOTO"	33.467	135.783	2446.444									0.24		2														
	1993	8	8	8	34	24.9	4	1	2221	7.8			"n"	"JAPAN"	"WAKAYAMA"	"URAGAMI"	33.55	135.9	2450.454									0.21		2														
	1993	8	8	8	34	24.9	4	1	2221	7.8			"n"	"USA TERRITORY"	"GU"	"APRA HARBOR, GUAM"	13.433	144.65	52.511	8	8	38	0	5				0.08		2														
	1993	8	8	8	34	24.9	4	1	2221	7.8			"n"	"MARSHALL ISLANDS, REP. OF"	"MH"	"KWAJALEIN, MARSHALL ISLANDS"	8.733	167.733	2549.829									0.07		2														
	1993	8	8	8	34	24.9	4	1	2221	7.8			"n"	"USA"	"AK"	"SHEMYA ISLAND, AK"	52.731	174.103	5119.841									0.14		2														
	1993	8	8	8	34	24.9	4	1	2221	7.8			"n"	"USA TERRITORY"	"GU"	"YLIG BAY, GUAM"	13.39	144.75	45.475									1.8		1														
	1993	8	8	8	34	24.9	4	1	2221	7.8			"n"	"JAPAN"	"IWATE"	"MIYAKO"	39.65	141.983	2967.893									0.13		2														
	1993	8	8	8	34	24.9	4	1	2221	7.8			"n"	"JAPAN"	"HOKKAIDO"	"KUSHIRO"	42.9756	144.3714	3324.547									0.13		2														
	1993	8	8	8	34	24.9	4	1	2221	7.8			"n"	"JAPAN"	"KOCHI"	"KOCHI"	33.55	133.55	2547.902									0.19		2														
	1993	8	8	8	34	24.9	4	1	2221	7.8			"n"	"JAPAN"	"KOCHI"	"TOSA-SHIMIZU"	32.7792	132.9589	2502.078									0.38		2														
	1993	8	8	8	34	24.9	4	1	2221	7.8			"n"	"JAPAN"	"OKINAWA"	"HIRARA"	24.8	125.283	2432.201									0.13		2														
	1993	8	8	8	34	24.9	4	1	2221	7.8			"n"	"JAPAN"	"SHIZUOKA"	"UCHIURA"	35.017	138.883	2512.508									0.14		2														
	1993	8	8	8	34	24.9	4	1	2221	7.8			"n"	"JAPAN"	"CHIBA"	"MERA"	34.9189	139.825	2481.091									0.43		2														
	1993	8	8	8	34	24.9	4	1	2221	7.8			"n"	"JAPAN"	"FUKUSHIMA"	"ONAHAMA"	36.933	140.9	2681.739									0.14		2														
	1993	8	8	8	34	24.9	4	1	2221	7.8			"n"	"JAPAN"	"KOCHI"	"MUROTOMISAKI"	33.267	134.167	2492.794									0.43		2														
	1993	8	8	8	34	24.9	4	1	2221	7.8			"n"	"USA"	"HI"	"LAHAINA, MAUI, HI"	20.88	-156.69	6262.124									0.08		2														
	1993	8	8	8	34	24.9	4	1	2221	7.8			"n"	"USA"	"HI"	"KAHULUI, MAUI, HI"	20.895	-156.477	6284.212									0.06		2														
	1993	8	8	8	34	24.9	4	1	2221	7.8			"n"	"USA"	"AK"	"ADAK, SWEEPER COVE, AK"	51.863	-176.632	5518.812									0.06		2														
	1993	8	8	8	34	24.9	4	1	2221	7.8			"n"	"JAPAN"	"OKINAWA"	"OKINAWA"	26.167	127.833	2297.45									0.09		2														
	1993	8	8	8	34	24.9	4	1	2221	7.8			"n"	"JAPAN"	"CHIBA"	"CHIBA"	35.567	140.05	2546.901									0.05		2														
	1993	8	8	8	34	24.9	4	1	2221	7.8			"n"	"JAPAN"	"MIYAGI"	"AYUKAWA"	38.3	141.5	2824.056									0.22		2														
	1993	8	8	8	34	24.9	4	1	2221	7.8			"n"	"JAPAN"	"TOKUSHIMA"	"KOMATSUSHIMA"	34.017	134.583	2549.047									0.1		2														
	1993	8	8	8	34	24.9	4	1	2221	7.8			"n"	"USA TERRITORY"	"GU"	"PAGO BAY, GUAM"	13.418	144.79	48.25											1														
	1993	8	8	8	34	24.9	4	1	2221	7.8			"n"	"USA"	"HI"	"HONOKOHAU, HAWAII, HI"	19.671	-156.028	6337.094									0.03		2														
	1993	8	8	8	34	24.9	4	1	2221	7.8			"n"	"JAPAN"	"HOKKAIDO"	"HAKODATE"	41.7187	140.7247	3209.141									0.07		2														
	1993	8	8	8	34	24.9	4	1	2221	7.8			"n"	"JAPAN"	"AOMORI"	"HACHINOHE"	40.533	141.533	3069.658									0.12		2														
	1993	8	8	8	34	24.9	4	1	2221	7.8			"n"	"JAPAN"	"HOKKAIDO"	"HANASAKI"	43.2781	145.5678	3358.704									0.19		2														
	1993	8	8	8	34	24.9	4	1	2221	7.8			"n"	"JAPAN"	"MIYAZAKI"	"HOSOSHIMA"	32.433	131.667	2536.395									0.15		2														
	1993	8	8	8	34	24.9	4	1	2221	7.8			"n"	"JAPAN"	"WAKAYAMA"	"SHIMIZU"	35.017	138.517	2521.509									0.2		2														
	1993	8	8	8	34	24.9	4	1	2221	7.8			"n"	"JAPAN"	"TOKYO"	"TOKYO"	35.65	139.767	2561.366									0.05		2														
	1993	8	8	8	34	24.9	4	1	2221	7.8			"n"	"USA TERRITORY"	"GU"	"TALOFOFO RIVER, GUAM"	13.33	144.77	38.646									2.4		1														
	1993	8	8	8	34	24.9	4	1	2221	7.8			"n"	"JAPAN"	"CHIBA"	"CHOSHI"	35.75	140.867	2552.805									0.09		2														
	1993	8	8	8	34	24.9	4	1	2221	7.8			"n"	"JAPAN"	"HOKKAIDO"	"URAKAWA"	42.167	142.767	3240.449									0.14		2														
	1993	8	8	8	34	24.9	4	1	2221	7.8			"n"	"JAPAN"	"IWATE"	"OFUNATO"	39.017	141.75	2900.32									0.17		2														
	1993	8	8	8	34	24.9	4	1	2221	7.8			"n"	"JAPAN"	"KANAGAWA"	"YOKOHAMA"	35.45	139.65	2542.087									0.06		2														
	1993	11	13	1	18	4.1	4	1	2222	7			"n"	"RUSSIA"	"KAMCHATKA"	"PETROPAVLOVSK, KAMCHATKA"	53.01667	158.65	120.476									0.05		2														
	1994	1	4				1	9	5405				"m"	"USA"	"ME"	"COREA, ME"	44.401	-67.976	0.491									1.5		1														
	1994	1	21	2	24	29.9	4	1	2224	7			"n"	"INDONESIA"	"NORTH MALUKU"	"PAYOUT, HALMAHERA ISLAND"	1.731944	128.007778	84.969									2		1														
	1994	1	21	2	24	29.9	4	1	2224	7			"n"	"INDONESIA"	"NORTH MALUKU"	"MALIFUT, HALMAHERA ISLAND"	1.1667	127.8333	20.149									1		1														
	1994	1	21	2	24	29.9	4	1	2224	7			"n"	"INDONESIA"	"NORTH MALUKU"	"KAO, HALMAHERA ISLAND"	1.17	127.9	25.283									1		1														
	1994	4	8	1	10	40.8	4	1	2226	6.4			"n"	"JAPAN"	"IWATE"	"OFUNATO"	39.017	141.75	242.063									0.08		2		"F"												
	1994	4	8	1	10	40.8	4	1	2226	6.4			"n"	"JAPAN"	"AOMORI"	"HACHINOHE"	40.533	141.533	182.246									0.07		2		"F"												
	1994	4	8	1	10	40.8	4	1	2226	6.4			"n"	"JAPAN"	"MIYAGI"	"AYUKAWA"	38.3	141.5	317.723									0.07		2														
	1994	4	28	11	30		4	8	4249				"n"	"NORWAY"		"BALESTRAND"	61.22	6.32	15.061									4		1										1				
	1994	5	24	4	0	42.1	1	1	5428	6.5			"n"	"JAPAN"		"HATO-JIMA ISLAND"	24.4669	123.816	149.92									0.02		2														
	1994	6	2	18	17	34	4	1	2227	7.8			"n"	"AUSTRALIA"		"DAMPIER"	-20.65	116.8	1203.128									0.45		1														
	1994	6	2	18	17	34	4	1	2227	7.8			"n"	"INDONESIA"	"BALI"	"ANTOR, BALI ISLAND"	-8.5275	114.9953333	320.555									4.1		4														
	1994	6	2	18	17	34	4	1	2227	7.8			"n"	"INDONESIA"	"EAST JAVA"	"SENDANBRU, MALANG"	-8.43016667	112.6846667	226.99									3.4		4														
	1994	6	2	18	17	34	4	1	2227	7.8			"n"	"INDONESIA"	"EAST JAVA"	"TAMBAKREJO, TULUNGAGUNG"	-8.3	112.0833333	254.544									5.4		5														
	1994	6	2	18	17	34	4	1	2227	7.8			"n"	"AUSTRALIA"		"KING BAY"	-20.64	116.755	1200.402									0.2		2														
	1994	6	2	18	17	34	4	1	2227	7.8			"n"	"INDONESIA"	"BALI"	"TANAH LOT, BALI ISLAND"	-8.61983333	115.0858333	321.33									2		4														
	1994	6	2	18	17	34	4	1	2227	7.8			"n"	"INDONESIA"	"EAST JAVA"	"GRAJAGAN, BANYUWANGI"	-8.59633333	114.2233333	257.876									2.5		4			13	1										
	1994	6	2	18	17	34	4	1	2227	7.8			"n"	"INDONESIA"	"EAST JAVA"	"PANCER CENTER, BANYUWANGI"	-8.58916667	114.0043333	245.112									6.7		4														
	1994	6	2	18	17	34	4	1	2227	7.8			"n"	"INDONESIA"	"EAST JAVA"	"PANCER, BANYUWANGI"	-8.586	114.0078333	245.611									5.7		4														
	1994	6	2	18	17	34	4	1	2227	7.8			"n"	"INDONESIA"	"EAST JAVA"	"BANDIALIT, JEMBER"	-8.48166667	113.711	240.743									9.9		4														
	1994	6	2	18	17	34	4	1	2227	7.8			"n"	"INDONESIA"	"EAST JAVA"	"BANDIALIT E, JEMBER"	-8.48283333	113.7125	240.691									5.9		4														
	1994	6	2	18	17	34	4	1	2227	7.8			"n"	"INDONESIA"	"EAST JAVA"	"GETEN, JEMBER"	-8.38616667	113.4081667	239.668									3.1		4														
	1994	6	2	18	17	34	4	1	2227	7.8			"n"	"INDONESIA"	"EAST JAVA"	"SENDANBRU, MALANG"	-8.43333333	112.682	226.662									3.6		4														
	1994	6	2	18	17	34	4	1	2227	7.8			"n"	"INDONESIA"	"EAST JAVA"	"SEMPU ISLAND, MALANG"	-8.42933333	112.6921667	227.023									2.7		4														
	1994	6	2	18	17	34	4	1	2227	7.8			"n"	"INDONESIA"	"EAST JAVA"	"SINE GULF, TULUNGAGUNG"	-8.26666667	111.8833333	265.88									4.2		4														
	1994	6	2	18	17	34	4	1	2227	7.8			"n"	"INDONESIA"	"EAST JAVA"	"GERANGAN, TULUNGAGUNG"	-8.25716667	111.8396667	268.762									4.6		4														
	1994	6	2	18	17	34	4	1	2227	7.8			"n"	"INDONESIA"	"EAST JAVA"	"POPOH PORT, TULUNGAGUNG"	-8.263	111.8043333	269.778									3.9		4														
	1994	6	2	18	17	34	4	1	2227	7.8			"n"	"AUSTRALIA"		"ONSLOW"	-21.65	115.133	1260.548									0.2		2														
	1994	6	2	18	17	34	4	1	2227	7.8			"n"	"INDONESIA"	"EAST JAVA"	"WATUULO, JEMBER, JAVA"	-8.43443	113.58225	240.358									7.6		5			3	1						1	16	1		
	1994	6	2	18	17	34	4	1	2227	7.8			"n"	"AUSTRALIA"		"CARNARVON"	-24.9	113.65	1598.685									0.2		2														
	1994	6	2	18	17	34	4	1	2227	7.8			"n"	"INDONESIA"	"BALI"	"SOKA, BALI ISLAND"	-8.5265	114.9931667	320.454									4.95	100	4										1				
	1994	6	2	18	17	34	4	1	2227	7.8			"n"	"INDONESIA"	"EAST JAVA"	"TG. PURWA, BANYUWANGI"	-8.7395	114.3426667	253.609									5.6		4														
	1994	6	2	18	17	34	4	1	2227	7.8			"n"	"INDONESIA"	"EAST JAVA"	"GRAJAGAN WEST, BANYUWANGI"	-8.6	114.225	257.657									2.3		4														
	1994	6	2	18	17	34	4	1	2227	7.8			"n"	"INDONESIA"	"EAST JAVA"	"PURWOASRI, BANYUWANGI"	-8.61516667	114.1138333	249.232									1.3		4														
	1994	6	2	18	17	34	4	1	2227	7.8			"n"	"INDONESIA"	"EAST JAVA"	"LAMPON EAST, BANYUWANGI"	-8.6	114.0966667	249.571									9.3		4														
	1994	6	2	18	17	34	4	1	2227	7.8			"n"	"INDONESIA"	"EAST JAVA"	"LAMPON, BANYUWANGI"	-8.6155	114.0865	247.524									1.3		4														
	1994	6	2	18	17	34	4	1	2227	7.8			"n"	"INDONESIA"	"EAST JAVA"	"BANDIALIT W, JEMBER"	-8.48233333	113.7113333	240.69									11.2		4														
	1994	6	2	18	17	34	4	1	2227	7.8			"n"	"INDONESIA"	"EAST JAVA"	"BANDIALIT E, JEMBER"	-8.48216667	113.713	240.781									6		4														
	1994	6	2	18	17	34	4	1	2227	7.8			"n"	"INDONESIA"	"EAST JAVA"	"BESINI-NGARPUGER, JEMBER"	-8.38033333	113.4655	242.016									5.9		4														
	1994	6	2	18	17	34	4	1	2227	7.8			"n"	"INDONESIA"	"EAST JAVA"	"BRUMBURN, TULUNGAGUNG"	-8.262	111.834	268.528									3.8		4														
	1994	6	2	18	17	34	4	1	2227	7.8			"n"	"INDONESIA"	"EAST JAVA"	"SUKAMADE"	-8.56008	113.881167	241.134									6.25	300	4										1			1	1
	1994	6	2	18	17	34	4	1	2227	7.8			"n"	"INDONESIA"	"EAST JAVA"	"LAMPON, BANYUWANGI"	-8.62	114.09	247.323									11		5														
	1994	6	2	18	17	34	4	1	2227	7.8			"n"	"INDONESIA"	"BALI"	"PENGGRAGUAN, BALI ISLAND"	-8.46333333	114.9076667	318.437									3.2		4														
	1994	6	2	18	17	34	4	1	2227	7.8			"n"	"INDONESIA"	"EAST JAVA"	"TG. PURWA, BANYUWANGI"	-8.73083333	114.3475	254.683									5.5		4														
	1994	6	2	18	17	34	4	1	2227	7.8			"n"	"INDONESIA"	"EAST JAVA"	"BRUMBURN, TULUNGAGUNG"	-8.26166667	111.8336667	268.576									4.8		4														
	1994	6	2	18	17	34	4	1	2227	7.8			"n"	"INDONESIA"	"EAST JAVA"	"POPOH, TULUNGAGUNG"	-8.25966667	111.8071667	269.982									2.9		4														
	1994	6	2	18	17	34	4	1	2227	7.8			"n"	"INDONESIA"	"EAST JAVA"	"RAJEKWESI, BANYUWANGI"	-8.5585	113.9436667	244.629									7.5	250	4			47	1			80	2		1	71	2		
	1994	6	2	18	17	34	4	1	2227	7.8			"n"	"INDONESIA"	"EAST JAVA"	"TAMBAK GETEM, JEMBER, JAVA"	-8.38038	113.4465566	241.425									5.8	300	4			6	1										
	1994	6	2	18	17	34	4	1	2227	7.8			"n"	"INDONESIA"	"EAST JAVA"	"TRIANGGUL ASIH, BANYUWANGI"	-8.65683333	114.3606667	261.878									4.9		4														
	1994	6	2	18	17	34	4	1	2227	7.8			"n"	"INDONESIA"	"EAST JAVA"	"G-LAND, PLENGKUNG, BANYUWANGI"	-8.69483333	114.376	259.748									4		4														
	1994	6	2	18	17	34	4	1	2227	7.8			"n"	"INDONESIA"	"EAST JAVA"	"TG. PURWA, BANYUWANGI"	-8.73033333	114.351	254.976									4.2		4														
	1994	6	2	18	17	34	4	1	2227	7.8			"n"	"INDONESIA"	"EAST JAVA"	"TG. PURWA, BANYUWANGI"	-8.73216667	114.3488333	254.667									5.1		4														
	1994	6	2	18	17	34	4	1	2227	7.8			"n"	"INDONESIA"	"EAST JAVA"	"TG. PURWA, BANYUWANGI"	-8.74583333	114.3558333	254.025									4.4		4														
	1994	6	2	18	17	34	4	1	2227	7.8			"n"	"INDONESIA"	"EAST JAVA"	"GRAJAGAN WEST, BANYUWANGI"	-8.60816667	114.2266667	257.038									4.1		4														
	1994	6	2	18	17	34	4	1	2227	7.8			"n"	"INDONESIA"	"EAST JAVA"	"PANCER, BANYUWANGI"	-8.58933333	114.0083333	245.326									6.3		4														
	1994	6	2	18	17	34	4	1	2227	7.8			"n"	"INDONESIA"	"EAST JAVA"	"BANDIALIT E, JEMBER"	-8.48516667	113.7156667	240.594									4.6		4														
	1994	6	2	18	17	34	4	1	2227	7.8			"n"	"INDONESIA"	"EAST JAVA"	"GERANGAN, TULUNGAGUNG"	-8.257	111.8398333	268.771									5.5		4														
	1994	6	2	18	17	34	4	1	2227	7.8			"n"	"INDONESIA"	"EAST JAVA"	"SIDEM, TULUNGAGUNG"	-8.25566667	111.8	270.714									3.1		4														
	1994	6	2	18	17	34	4	1	2227	7.8			"n"	"INDONESIA"	"EAST JAVA"	"PRIGI, TULUNGAGUNG"	-8.28716667	111.7238333	271.214											1														
	1994	6	2	18	17	34	4	1	2227	7.8			"n"	"INDONESIA"	"EAST JAVA"	"RAJEKWESI, BANYUWANGI"	-8.55666667	113.9351667	244.342									4.2		4														
	1994	6	2	18	17	34	4	1	2227	7.8			"n"	"INDONESIA"	"EAST JAVA"	"PULO MERAH, BANYUWANGI, JAVA"	-8.59463	114.0298	246.075									6	700	1			8	1						1	20	1		3
	1994	6	2	18	17	34	4	1	2227	7.8			"n"	"INDONESIA"	"EAST JAVA"	"PANCER, BANYUWANGI"	-8.59	114.005	245.071									9.4	300	4			121	3			526	3		2	450	3	250	3
	1994	6	2	18	17	34	4	1	2227	7.8			"n"	"INDONESIA"	"BALI"	"SURABRATAN, BALI ISLAND"	-8.47466667	114.9303333	319.348									2.6		4														
	1994	6	2	18	17	34	4	1	2227	7.8			"n"	"INDONESIA"	"BALI"	"PAKUTATAN, BALI ISLAND"	-8.43366667	114.8235	314.256									2.8		4														
	1994	6	2	18	17	34	4	1	2227	7.8			"n"	"INDONESIA"	"EAST JAVA"	"SEMPU ISLAND, MALANG"	-8.43333333	112.6905	226.595									2.1		4														
	1994	6	2	18	17	34	4	1	2227	7.8			"n"	"INDONESIA"	"EAST JAVA"	"GERANGAN, TULUNGAGUNG"	-8.25683333	111.8405	268.758									5.4		4														
	1994	6	2	18	17	34	4	1	2227	7.8			"n"	"INDONESIA"	"EAST JAVA"	"RAJEKWESI, BANYUWANGI"	-8.5565	113.9351667	244.358									13.9		5														
	1994	6	2	18	17	34	4	1	2227	7.8			"n"	"INDONESIA"	"EAST JAVA"	"GETEN (CAPE PELINDU), JEMBER"	-8.38548	113.408183	239.742									3.2	350	4											3	1		
	1994	6	2	18	17	34	4	1	2227	7.8			"n"	"INDONESIA"	"EAST JAVA"	"LAMPON, BANYUWANGI"	-8.6155	114.0865	247.524									5.4	1000	4			40	1			63	2		1	112	3		
	1994	6	2	18	17	34	4	1	2227	7.8			"n"	"AUSTRALIA"		"BROOME"	-18	122.2166	1309.983									0.2		2														
	1994	6	2	18	17	34	4	1	2227	7.8			"n"	"INDONESIA"	"BALI"	"KUTA, BALI ISLAND"	-8.7095	115.1656667	321.976									1		4														
	1994	6	2	18	17	34	4	1	2227	7.8			"n"	"INDONESIA"	"EAST JAVA"	"TRIANGGUL ASIH, BANYUWANGI"	-8.657	114.3606667	261.863									3.6		4														
	1994	6	2	18	17	34	4	1	2227	7.8			"n"	"INDONESIA"	"EAST JAVA"	"TG. PURWA, BANYUWANGI"	-8.733	114.346	254.394									5.3		4														
	1994	6	2	18	17	34	4	1	2227	7.8			"n"	"INDONESIA"	"EAST JAVA"	"LAMPON, BANYUWANGI"	-8.6155	114.0865	247.524									3.8		4														
	1994	6	2	18	17	34	4	1	2227	7.8			"n"	"INDONESIA"	"EAST JAVA"	"PANCER, BANYUWANGI"	-8.59	114.005	245.071									7.5		4														
	1994	6	2	18	17	34	4	1	2227	7.8			"n"	"INDONESIA"	"EAST JAVA"	"PANCER, BANYUWANGI"	-8.58916667	114.0046667	245.131									6.7		4														
	1994	6	2	18	17	34	4	1	2227	7.8			"n"	"INDONESIA"	"EAST JAVA"	"BAMBANGAN, LUMAJANG"	-8.28933333	112.1085	254.782									4.6		4														
	1994	6	2	18	17	34	4	1	2227	7.8			"n"	"INDONESIA"	"BALI"	"RAMBUTSUIWI, BALI ISLAND"	-8.405	114.7671667	312.315									2.7		4														
	1994	6	2	18	17	34	4	1	2227	7.8			"n"	"INDONESIA"	"EAST JAVA"	"RAJEKWESI, BANYUWANGI"	-8.55533333	113.9448333	244.996									5		4														
	1994	6	2	18	17	34	4	1	2227	7.8			"n"	"INDONESIA"	"EAST JAVA"	"TAMBAKREJO, TULUNGAGUNG"	-8.3	112.0833333	254.544									3.7		4														
	1994	6	2	18	17	34	4	1	2227	7.8			"n"	"INDONESIA"	"EAST JAVA"	"SINE GULF, TULUNGAGUNG"	-8.26666667	111.8833333	265.88									3.5		4														
	1994	6	2	18	17	34	4	1	2227	7.8			"n"	"INDONESIA"	"EAST JAVA"	"BRUMBURN, TULUNGAGUNG"	-8.26183333	111.8336667	268.56									3.7		4														
	1994	6	2	18	17	34	4	1	2227	7.8			"n"	"INDONESIA"	"EAST JAVA"	"SENDANBRU, MALANG"	-8.41666667	112.7103333	228.293									3.6		4														
	1994	6	2	18	17	34	4	1	2227	7.8			"n"	"INDONESIA"	"EAST JAVA"	"NGLIYEP, MALANG"	-8.35	112.3533333	241.129									4.3		4														
	1994	6	3	21	6	59.8	4	1	2592	6.6			"n"	"INDONESIA"	"BALI"	"SOKA, BALI ISLAND"	-8.52	114.99	307.553									3.7		1														
	1994	6	5	1	45	2.7	4	1	2593	6.1			"n"	"INDONESIA"	"EAST JAVA"	"BAMBANGAN, LUMAJANG"	-8.28933	113.1085	228.719									3		4														
	1994	9	1	15	15	53	4	1	2228	7			"n"	"USA"	"CA"	"CRESCENT CITY, CA"	41.7456	-124.184	195.113									0.07		2														
	1994	9	19				4	6	2229		2180		"n"	"PAPUA NEW GUINEA"	"EAST NEW BRITAIN"	"SIMPSON HARBOUR, NEW BRITAIN"	-4.21	152.17	5.783									3	200	1										1				
	1994	9	19				4	6	2229		2180		"n"	"PAPUA NEW GUINEA"	"EAST NEW BRITAIN"	"MATUPI ISLAND, NEW BRITAIN"	-4.24	152.1833	3.415									3		1										1	30	1		
	1994	9	19				4	6	2229		2180		"n"	"PAPUA NEW GUINEA"	"EAST NEW BRITAIN"	"SIMPSON HARBOUR, NEW BRITAIN"	-4.21	152.17	5.783									1.2		2										1				
	1994	10	4	13	22	55.8	4	1	2230	8.3			"n"	"RUSSIA"	"KURIL ISLANDS"	"LOVTSOVA CAPE, KUNASHIR"	44.45	146.57	96.297									2		5														
	1994	10	4	13	22	55.8	4	1	2230	8.3			"n"	"RUSSIA"	"KURIL ISLANDS"	"MALOKURIL'SKAYA BAY, SHIKOTAN"	43.867	146.817	41.869									2.9		2		"R"												
	1994	10	4	13	22	55.8	4	1	2230	8.3			"n"	"RUSSIA"	"KURIL ISLANDS"	"ZVEZDNAY BAY, SHIKOTAN"	43.77	146.61	57.246									4		5														
	1994	10	4	13	22	55.8	4	1	2230	8.3			"n"	"USA"	"AK"	"UNALASKA, DUTCH HARBOR, AK"	53.883	-166.533	3498.775									0.08		2														
	1994	10	4	13	22	55.8	4	1	2230	8.3			"n"	"USA TERRITORY"	"AS"	"PAGO PAGO, AMERICAN SAMOA"	-14.2766	-170.689	7713.535									0.08		2														
	1994	10	4	13	22	55.8	4	1	2230	8.3			"n"	"USA"	"CA"	"SANTA MONICA, CA"	34.008	-118.5	7792.974									0.09		2														
	1994	10	4	13	22	55.8	4	1	2230	8.3			"n"	"JAPAN"	"TOKYO"	"YAENE, HACHIJO ISLAND"	33.1	139.77	1354.405									0.16		2														
	1994	10	4	13	22	55.8	4	1	2230	8.3			"n"	"JAPAN"	"AICHI"	"NAGOYA"	35.083	136.883	1316.418									0.1		2														
	1994	10	4	13	22	55.8	4	1	2230	8.3			"n"	"JAPAN"	"AOMORI"	"HACHINOHE"	40.533	141.533	598.395									0.84		2														
	1994	10	4	13	22	55.8	4	1	2230	8.3			"n"	"JAPAN"	"CHIBA"	"CHIBA"	35.567	140.05	1103.21									0.09		2														
	1994	10	4	13	22	55.8	4	1	2230	8.3			"n"	"JAPAN"	"CHIBA"	"MERA"	34.9189	139.825	1175.198									0.18		2														
	1994	10	4	13	22	55.8	4	1	2230	8.3			"n"	"JAPAN"	"HOKKAIDO"	"ABASHIRI"	44.017	144.283	245.582									0.18		2														
	1994	10	4	13	22	55.8	4	1	2230	8.3			"n"	"JAPAN"	"HOKKAIDO"	"TOKACHIKO"	42.3	143.333	363.81									0.45		2														
	1994	10	4	13	22	55.8	4	1	2230	8.3			"n"	"JAPAN"	"HOKKAIDO"	"URAKAWA"	42.167	142.767	412.057									0.31		2		"R"												
	1994	10	4	13	22	55.8	4	1	2230	8.3			"n"	"JAPAN"	"HOKKAIDO"	"UTOROKO"	44.067	145	189.242									0.31		2														
	1994	10	4	13	22	55.8	4	1	2230	8.3			"n"	"JAPAN"	"MIE"	"TOBA"	34.483	136.817	1371.987									0.17		2														
	1994	10	4	13	22	55.8	4	1	2230	8.3			"n"	"RUSSIA"	"KURIL ISLANDS"	"GOROBETS BAY, SHIKOTAN"	43.82	146.71	49.45									3		5														
	1994	10	4	13	22	55.8	4	1	2230	8.3			"n"	"USA"	"AK"	"ADAK, SWEEPER COVE, AK"	51.863	-176.632	2811.884									0.15		2														
	1994	10	4	13	22	55.8	4	1	2230	8.3			"n"	"USA"	"CA"	"CRESCENT CITY, CA"	41.7456	-124.184	6873.91									0.5		2														
	1994	10	4	13	22	55.8	4	1	2230	8.3			"n"	"JAPAN"	"WAKAYAMA"	"SHIMIZU"	35.017	138.517	1231.398									0.07		2														
	1994	10	4	13	22	55.8	4	1	2230	8.3			"n"	"USA"	"CA"	"LA JOLLA, CA"	32.867	-117.257	7962.977									0.03		2														
	1994	10	4	13	22	55.8	4	1	2230	8.3			"n"	"CANADA"	"BC"	"PORT ALBERNI, BRITISH COLUMBIA"	49.233	-124.817	6379.665	4	22	49	9	27	6	15	38	0.13		2	83	"R"												
	1994	10	4	13	22	55.8	4	1	2230	8.3			"n"	"CANADA"	"BC"	"WINTER HARBOR, BRITISH COLUMBIA"	50.513	-128.028	6108.674	4	21	47	8	25	5	3	37	0.1		2	33	"R"												
	1994	10	4	13	22	55.8	4	1	2230	8.3			"n"	"JAPAN"	"HOKKAIDO"	"AKKESHIGYOKO"	43.05	144.85	215.644									0.54		2														
	1994	10	4	13	22	55.8	4	1	2230	8.3			"n"	"JAPAN"	"KANAGAWA"	"YOKOSUKA"	35.283	139.65	1149.27									0.08		2														
	1994	10	4	13	22	55.8	4	1	2230	8.3			"n"	"RUSSIA"	"KURIL ISLANDS"	"AGATOVA BAY, SHIKOTAN"	43.74	146.73	47.736									8.1		5														
	1994	10	4	13	22	55.8	4	1	2230	8.3			"n"	"RUSSIA"	"KURIL ISLANDS"	"BAKLANNYL CAPE"	43.43	146.07	107.956									3.5		5														
	1994	10	4	13	22	55.8	4	1	2230	8.3			"n"	"RUSSIA"	"KURIL ISLANDS"	"N. KASATKA BAY, ITURUP"	45.01	147.71	140.906									3		5														
	1994	10	4	13	22	55.8	4	1	2230	8.3			"n"	"RUSSIA"	"KURIL ISLANDS"	"S. DIMITROVA BAY, SHIKOTAN"	43.79	146.82	40.375									10.4		5														
	1994	10	4	13	22	55.8	4	1	2230	8.3			"n"	"RUSSIA"	"KURIL ISLANDS"	"W. DALFIN BAY, SHIKOTAN"	43.76	146.61	57.268									3		5														
	1994	10	4	13	22	55.8	4	1	2230	8.3			"n"	"RUSSIA"	"KURIL ISLANDS"	"YUZHNO-KURIL'SK, KUNASHIR ISLAND"	44.03	145.86	120.797									4.7		5										1	2	1	1	1
	1994	10	4	13	22	55.8	4	1	2230	8.3			"n"	"USA TERRITORY"	"UM"	"WAKE ISLAND"	19.29	166.6183	3257.325									0.09		2														
	1994	10	4	13	22	55.8	4	1	2230	8.3			"n"	"FRENCH POLYNESIA"		"PAPEETE, TAHITI"	-17.5331	-149.5726	9335.389									0.15		2														
	1994	10	4	13	22	55.8	4	1	2230	8.3			"n"	"CHILE"	"CONCEPCION"	"TALCAHUANO"	-36.683	-73.1	16528.955									0.4																
	1994	10	4	13	22	55.8	4	1	2230	8.3			"n"	"RUSSIA"	"KURIL ISLANDS"	"S. KASATKA BAY, ITURUP"	44.92	147.63	129.813									3.4		5														
	1994	10	4	13	22	55.8	4	1	2230	8.3			"n"	"JAPAN"	"TOKYO"	"YAENE, HACHIJO ISLAND"	33.1	139.767	1354.531									0.16		2														
	1994	10	4	13	22	55.8	4	1	2230	8.3			"n"	"RUSSIA"	"KURIL ISLANDS"	"PETROVA POINT, KUNASHIR ISLAND"	44.2	145.9	123.475									5.3		5														
	1994	10	4	13	22	55.8	4	1	2230	8.3			"n"	"JAPAN"	"AICHI"	"KINUURA"	34.883	136.95	1329.692									0.08		2														
	1994	10	4	13	22	55.8	4	1	2230	8.3			"n"	"JAPAN"	"HOKKAIDO"	"WAKKANAI"	45.4	141.683	482.714									0.24		2														
	1994	10	4	13	22	55.8	4	1	2230	8.3			"n"	"JAPAN"	"OKINAWA"	"HIRARA"	24.8	125.283	2905.162									0.12		2														
	1994	10	4	13	22	55.8	4	1	2230	8.3			"n"	"RUSSIA"	"KURIL ISLANDS"	"ILYUSHINA RIVER, KUNASHIR"	44.15	145.95	117.736									6.4		5														
	1994	10	4	13	22	55.8	4	1	2230	8.3			"n"	"RUSSIA"	"KURIL ISLANDS"	"KOSMODEMIANSKOE, KUNASHIR"	44.1	145.9	119.738									4.6		5														
	1994	10	4	13	22	55.8	4	1	2230	8.3			"n"	"RUSSIA"	"KURIL ISLANDS"	"PALTUSOVO, KUNASHIR"	43.72	145.43	152.425									2.6		5														
	1994	10	4	13	22	55.8	4	1	2230	8.3			"n"	"RUSSIA"	"KURIL ISLANDS"	"ALL OF KURIL ISLANDS"	46.17	152	455.063											5														
	1994	10	4	13	22	55.8	4	1	2230	8.3			"n"	"USA"	"AK"	"SHEMYA ISLAND, AK"	52.731	174.103	2206.592									0.15		2														
	1994	10	4	13	22	55.8	4	1	2230	8.3			"n"	"USA"	"HI"	"KAHULUI, MAUI, HI"	20.895	-156.477	5737.302									0.44		2														
	1994	10	4	13	22	55.8	4	1	2230	8.3			"n"	"USA"	"HI"	"NAWILIWILI, KAUAI, HI"	21.927	-159.36	5434.394									0.18		2														
	1994	10	4	13	22	55.8	4	1	2230	8.3			"n"	"JAPAN"	"SHIZUOKA"	"UCHIURA"	35.017	138.883	1212.378									0.13		2														
	1994	10	4	13	22	55.8	4	1	2230	8.3			"n"	"USA"	"WA"	"NEAH BAY, WA"	48.367	-124.612	6442.412									0.04		2														
	1994	10	4	13	22	55.8	4	1	2230	8.3			"n"	"USA"	"CA"	"NORTH SPIT, HUMBOLDT BAY, CA"	40.767	-124.217	6934.155									0.1		2														
	1994	10	4	13	22	55.8	4	1	2230	8.3			"n"	"CANADA"	"BC"	"VICTORIA, BRITISH COLUMBIA"	48.425	-123.372	6517.069	4	22	52	9	30	5	5	24	0.05		2	25	"R"												
	1994	10	4	13	22	55.8	4	1	2230	8.3			"n"	"USA"	"WA"	"TOKE POINT, WA"	46.705	-123.966	6581.748									0.03		2														
	1994	10	4	13	22	55.8	4	1	2230	8.3			"n"	"JAPAN"	"SHIZUOKA"	"MAISAKA"	34.683	137.617	1309.747									0.08		2														
	1994	10	4	13	22	55.8	4	1	2230	8.3			"n"	"JAPAN"	"HOKKAIDO"	"HANASAKI"	43.2781	145.5678	152.021									1.68		2														
	1994	10	4	13	22	55.8	4	1	2230	8.3			"n"	"JAPAN"	"MIE"	"YOKKAICHIKO"	34.95	136.633	1342.366									0.05		2														
	1994	10	4	13	22	55.8	4	1	2230	8.3			"n"	"RUSSIA"	"KURIL ISLANDS"	"GORYACHLY BEACH, KUNASHIR"	44	145.8	124.799									4.2		5														
	1994	10	4	13	22	55.8	4	1	2230	8.3			"n"	"RUSSIA"	"KURIL ISLANDS"	"POLONSKY IS."	43.63	146.35	79.865									4		5														
	1994	10	4	13	22	55.8	4	1	2230	8.3			"n"	"RUSSIA"	"KURIL ISLANDS"	"SHEZHKOVA BAY, SHIKOTAN"	43.78	146.78	43.561									8		5														
	1994	10	4	13	22	55.8	4	1	2230	8.3			"n"	"USA"	"HI"	"HILO, HAWAII, HI"	19.7303	-155.0553	5933.931									0.16		2														
	1994	10	4	13	22	55.8	4	1	2230	8.3			"n"	"USA"	"HI"	"KAWAIHAE, HAWAII, HI"	20.0366	-155.829	5850.227									0.09		2														
	1994	10	4	13	22	55.8	4	1	2230	8.3			"n"	"USA TERRITORY"	"HI"	"MIDWAY ISLANDS"	28.215	-177.361	3584.221									0.27		2														
	1994	10	4	13	22	55.8	4	1	2230	8.3			"n"	"JAPAN"	"WAKAYAMA"	"KUSHIMOTO"	33.467	135.783	1519.618									0.33		2														
	1994	10	4	13	22	55.8	4	1	2230	8.3			"n"	"USA"	"CA"	"PORT SAN LUIS, CA"	35.17666	-120.755	7550.809									0.15		2														
	1994	10	4	13	22	55.8	4	1	2230	8.3			"n"	"USA"	"OR"	"CHARLESTON, OR"	43.352	-124.192	6772.188									0.09		2														
	1994	10	4	13	22	55.8	4	1	2230	8.3			"n"	"USA"	"CA"	"SANTA BARBARA, CA"	34.4803	-119.69	7675.135									0.08		2														
	1994	10	4	13	22	55.8	4	1	2230	8.3			"n"	"CANADA"	"BC"	"BAMFIELD, BRITISH COLUMBIA"	48.837	-125.137	6382.215	4	22	31	9	9	5	3	21	0.05		2	25	"R"												
	1994	10	4	13	22	55.8	4	1	2230	8.3			"n"	"CANADA"	"BC"	"TOFINO (CLAYOQUOT),BRITISH COLUMBIA"	49.153	-125.913	6315.447	4	22	19	8	57	5	2	35	0.03		2		"R"												
	1994	10	4	13	22	55.8	4	1	2230	8.3			"n"	"JAPAN"	"CHIBA"	"TATEYAMA"	35.05	139.88	1160.15									0.16		5														
	1994	10	4	13	22	55.8	4	1	2230	8.3			"n"	"JAPAN"	"CHIBA"	"CHOSHI"	35.75	140.867	1047.713									0.28		2														
	1994	10	4	13	22	55.8	4	1	2230	8.3			"n"	"JAPAN"	"HOKKAIDO"	"HAKODATE"	41.7187	140.7247	586.093									0.56		2														
	1994	10	4	13	22	55.8	4	1	2230	8.3			"n"	"JAPAN"	"HOKKAIDO"	"MURORAN"	42.35	140.95	542.357									0.32		2														
	1994	10	4	13	22	55.8	4	1	2230	8.3			"n"	"JAPAN"	"IWATE"	"MIYAKO"	39.65	141.983	637.736									0.64		2														
	1994	10	4	13	22	55.8	4	1	2230	8.3			"n"	"JAPAN"	"KOCHI"	"MUROTOMISAKI"	33.267	134.167	1631.892									0.18		2														
	1994	10	4	13	22	55.8	4	1	2230	8.3			"n"	"JAPAN"	"KOCHI"	"TOSA-SHIMIZU"	32.7792	132.9589	1746.834									0.26		2														
	1994	10	4	13	22	55.8	4	1	2230	8.3			"n"	"JAPAN"	"MIYAZAKI"	"ABURATSU"	31.583	131.417	1942.516									0.24		2														
	1994	10	4	13	22	55.8	4	1	2230	8.3			"n"	"RUSSIA"	"KURIL ISLANDS"	"GOLOVNINO, KUNASHIR"	43.73	145.52	145.129									2		5														
	1994	10	4	13	22	55.8	4	1	2230	8.3			"n"	"RUSSIA"	"KURIL ISLANDS"	"KRUGLOE LAKE, KUNASHIR"	44.38	146.42	98.781									4.7		5														
	1994	10	4	13	22	55.8	4	1	2230	8.3			"n"	"RUSSIA"	"KURIL ISLANDS"	"VESLOVSKY NECK, KUNASHIR"	43.73	145.57	141.104									3.1		5														
	1994	10	4	13	22	55.8	4	1	2230	8.3			"n"	"RUSSIA"	"KURIL ISLANDS"	"YURY IS."	43.45	146.1	104.897									1.5		5														
	1994	10	4	13	22	55.8	4	1	2230	8.3			"n"	"USA"	"CA"	"ARENA COVE, CA"	38.914	-123.711	7089.642									0.14		2														
	1994	10	4	13	22	55.8	4	1	2230	8.3			"n"	"USA"	"WA"	"PORT ANGELES, WA"	48.125	-123.44	6530.551									0.06		2														
	1994	10	4	13	22	55.8	4	1	2230	8.3			"n"	"USA"	"OR"	"PORT ORFORD, OR"	42.737	-124.497	6790.095									0.18		2														
	1994	10	4	13	22	55.8	4	1	2230	8.3			"n"	"USA"	"AK"	"SITKA, AK"	57.052	-135.342	5374.205									0.04		2														
	1994	10	4	13	22	55.8	4	1	2230	8.3			"n"	"USA"	"HI"	"HONOLULU, OAHU, HI"	21.3067	-157.867	5597.203									0.06		2														
	1994	10	4	13	22	55.8	4	1	2230	8.3			"n"	"JAPAN"	"BONIN IS, TOKYO"	"CHICHIJIMA ISLAND"	27.0939	142.1947	1907.183									0.79		2														
	1994	10	4	13	22	55.8	4	1	2230	8.3			"n"	"JAPAN"	"EHIME"	"UWAJIMA"	33.233	132.55	1735.473									0.07		2														
	1994	10	4	13	22	55.8	4	1	2230	8.3			"n"	"JAPAN"	"HOKKAIDO"	"ESASHIKO"	44.95	142.583	399.631									0.22		2														
	1994	10	4	13	22	55.8	4	1	2230	8.3			"n"	"JAPAN"	"HOKKAIDO"	"MOMBETSU"	44.35	143.367	323.195									0.44		2														
	1994	10	4	13	22	55.8	4	1	2230	8.3			"n"	"JAPAN"	"OKINAWA"	"ISHIGAKIKO"	24.333	124.167	3015.893									0.06		2														
	1994	10	4	13	22	55.8	4	1	2230	8.3			"n"	"RUSSIA"	"KURIL ISLANDS"	"C.TSERKOVNAYA BAY, SHIKOTAN"	43.74	146.69	50.949									8.5		5														
	1994	10	4	13	22	55.8	4	1	2230	8.3			"n"	"RUSSIA"	"KURIL ISLANDS"	"SERNOVODSK, KUNASHIR"	43.9	145.63	136.728									2.6		5														
	1994	10	4	13	22	55.8	4	1	2230	8.3			"n"	"CHILE"	"VALPARAISO"	"VALPARAISO"	-33.033	-71.633	16454.095									0.23																
	1994	10	4	13	22	55.8	4	1	2230	8.3			"n"	"JAPAN"	"TOKUSHIMA"	"KOMATSUSHIMA"	34.017	134.583	1543.849									0.08		2														
	1994	10	4	13	22	55.8	4	1	2230	8.3			"n"	"JAPAN"	"TOKYO"	"TOKYO"	35.65	139.767	1109.327									0.13		2														
	1994	10	4	13	22	55.8	4	1	2230	8.3			"n"	"JAPAN"	"WAKAYAMA"	"URAGAMI"	33.55	135.9	1505.682									0.28		2														
	1994	10	4	13	22	55.8	4	1	2230	8.3			"n"	"JAPAN"	"WAKAYAMA"	"WAKAYAMA"	34.217	135.15	1492.609									0.08		2														
	1994	10	4	13	22	55.8	4	1	2230	8.3			"n"	"JAPAN"	"CHIBA"	"MERA"	34.9189	139.825	1175.198									0.18		2														
	1994	10	4	13	22	55.8	4	1	2230	8.3			"n"	"JAPAN"	"TOKYO"	"OKADA"	34.783	139.383	1209.176									0.08		2														
	1994	10	4	13	22	55.8	4	1	2230	8.3			"n"	"JAPAN"	"HOKKAIDO"	"NEMURO"	43.276	145.572	151.792									1.73		5														
	1994	10	4	13	22	55.8	4	1	2230	8.3			"n"	"USA"	"HI"	"PORT ALLEN, KAUAI, HI"	21.91	-159.58	5418.085									0.15		2														
	1994	10	4	13	22	55.8	4	1	2230	8.3			"n"	"JAPAN"	"FUKUSHIMA"	"ONAHAMA"	36.933	140.9	934.438									0.47		2														
	1994	10	4	13	22	55.8	4	1	2230	8.3			"n"	"JAPAN"	"KANAGAWA"	"YOKOHAMA"	35.45	139.65	1133.703									0.11		2														
	1994	10	4	13	22	55.8	4	1	2230	8.3			"n"	"JAPAN"	"MIE"	"OWASE"	34.083	136.2	1442.025									0.3		2														
	1994	10	4	13	22	55.8	4	1	2230	8.3			"n"	"JAPAN"	"MIYAGI"	"AYUKAWA"	38.3	141.5	779.954									0.42		2														
	1994	10	4	13	22	55.8	4	1	2230	8.3			"n"	"JAPAN"	"SHIZUOKA"	"OMAEZAKI"	34.6083	138.2222	1284.005									0.23		2														
	1994	10	4	13	22	55.8	4	1	2230	8.3			"n"	"RUSSIA"	"KURIL ISLANDS"	"E.TSERKOVNAYA BAY, SHIKOTAN"	43.74	146.71	49.342									7.2		5														
	1994	10	4	13	22	55.8	4	1	2230	8.3			"n"	"RUSSIA"	"KURIL ISLANDS"	"KRAY SVETA CAPE, SHIKOTAN"	43.83	146.9	34.466									6		5														
	1994	10	4	13	22	55.8	4	1	2230	8.3			"n"	"RUSSIA"	"KURIL ISLANDS"	"N. DIMITROVA BAY, SHIKOTAN"	43.8	146.82	40.438									8.2		5														
	1994	10	4	13	22	55.8	4	1	2230	8.3			"n"	"RUSSIA"	"KURIL ISLANDS"	"N. KRABOVAYA BAY, SHIKOTAN"	43.833	146.73	48.023									2.6		5														
	1994	10	4	13	22	55.8	4	1	2230	8.3			"n"	"RUSSIA"	"KURIL ISLANDS"	"ZELYENYI IS."	43.52	146.1	102.442									1.5		5														
	1994	10	4	13	22	55.8	4	1	2230	8.3			"n"	"USA"	"CA"	"ALAMEDA, CA"	37.79	-122.27	7265.23									0.04		2														
	1994	10	4	13	22	55.8	4	1	2230	8.3			"n"	"USA"	"CA"	"LOS ANGELES, CA"	33.719	-118.272	7829.742									0.06		2														
	1994	10	4	13	22	55.8	4	1	2230	8.3			"n"	"USA"	"OR"	"SOUTH BEACH, OR"	44.625	-124.043	6703.187									0.05		2														
	1994	10	4	13	22	55.8	4	1	2230	8.3			"n"	"JAPAN"	"HOKKAIDO"	"KUSHIRO"	42.9756	144.3714	254.918									1.03		2														
	1994	10	4	13	22	55.8	4	1	2230	8.3			"n"	"JAPAN"	"HOKKAIDO"	"TOMAKOMAIHIGASHIKO"	42.6	141.817	465.928									0.57		2														
	1994	10	4	13	22	55.8	4	1	2230	8.3			"n"	"JAPAN"	"IWATE"	"OFUNATO"	39.017	141.75	703.977									0.41		2														
	1994	10	4	13	22	55.8	4	1	2230	8.3			"n"	"JAPAN"	"MIYAZAKI"	"HOSOSHIMA"	32.433	131.667	1856.742									0.18		2														
	1994	10	4	13	22	55.8	4	1	2230	8.3			"n"	"JAPAN"	"OKINAWA"	"OKINAWA"	26.167	127.833	2628.77									0.09		2														
	1994	10	8	21	44	7.2	4	1	2231	6.8			"n"	"INDONESIA"	"NORTH MALUKU"	"OBI ISLAND"	-1.48835	127.71474	38.99									3		1			1	1			52	2		2			479	3
	1994	10	9	7	55	39.5	4	1	2232	7.3			"n"	"JAPAN"	"HOKKAIDO"	"HANASAKI"	43.2781	145.5678	202.005									0.12		2														
	1994	10	9	7	55	39.5	4	1	2232	7.3			"n"	"JAPAN"	"HOKKAIDO"	"KUSHIRO"	42.9756	144.3714	304.939									0.06		2														
	1994	11	4	4	12		4	8	2233				"n"	"USA"	"AK"	"SKAGWAY, AK"	59.44	-135.33	6.897									9		5			1	1					25	4				
	1994	11	4	4	12		4	8	2233				"n"	"USA"	"AK"	"SKAGWAY, AK"	59.44	-135.33	6.897									1		2	3													
	1994	11	14	19	15	30.6	4	1	2234	7.1			"n"	"PHILIPPINES"	"ORIENTAL MINDORO"	"BACO CHICO ISLAND"	13.48441667	121.18075	13.108									0.12		5														
	1994	11	14	19	15	30.6	4	1	2234	7.1			"n"	"PHILIPPINES"	"ORIENTAL MINDORO"	"WAWA"	13.39747222	121.1409167	16.221									3.23		5														
	1994	11	14	19	15	30.6	4	1	2234	7.1			"n"	"PHILIPPINES"	"ORIENTAL MINDORO"	"PAMPISAN"	13.41194444	121.1355556	14.545									2.05		5														
	1994	11	14	19	15	30.6	4	1	2234	7.1			"n"	"PHILIPPINES"	"ORIENTAL MINDORO"	"PAMPISAN"	13.41277778	121.1291667	14.123									4.06		5														
	1994	11	14	19	15	30.6	4	1	2234	7.1			"n"	"PHILIPPINES"	"ORIENTAL MINDORO"	"PAMPISAN"	13.41272	121.1289	14.115									3.9		5														
	1994	11	14	19	15	30.6	4	1	2234	7.1			"n"	"PHILIPPINES"	"BATANGAS"	"LOBO"	13.63616667	121.1946	18.493									2.25		5														
	1994	11	14	19	15	30.6	4	1	2234	7.1			"n"	"PHILIPPINES"	"OCCIDENTAL MINDORO"	"SAN JOSE"	12.333333	121.083333	131.846									0.01		2														
	1994	11	14	19	15	30.6	4	1	2234	7.1			"n"	"PHILIPPINES"	"ORIENTAL MINDORO"	"BACO ISLAND"	13.46436111	121.1571389	11.843									6.58		5														
	1994	11	14	19	15	30.6	4	1	2234	7.1			"n"	"PHILIPPINES"	"ORIENTAL MINDORO"	"BACO ISLAND"	13.46436111	121.1571389	11.843									7.29		5														
	1994	11	14	19	15	30.6	4	1	2234	7.1			"n"	"PHILIPPINES"	"ORIENTAL MINDORO"	"BACO ISLAND"	13.46941667	121.1593333	11.736									6.14		5														
	1994	11	14	19	15	30.6	4	1	2234	7.1			"n"	"PHILIPPINES"	"ORIENTAL MINDORO"	"CALAPAN"	13.42847222	121.1946944	17.47									2.74		5														
	1994	11	14	19	15	30.6	4	1	2234	7.1			"n"	"PHILIPPINES"	"ORIENTAL MINDORO"	"SAN TEODORO"	13.44073333	121.0178667	10.734									3.87		5														
	1994	11	14	19	15	30.6	4	1	2234	7.1			"n"	"PHILIPPINES"	"ORIENTAL MINDORO"	"CALAPAN"	13.41488889	121.1779722	17.111									2.41		5														
	1994	11	14	19	15	30.6	4	1	2234	7.1			"n"	"PHILIPPINES"	"ORIENTAL MINDORO"	"BACO ISLAND"	13.46436111	121.1571389	11.843									6.9		5														
	1994	11	14	19	15	30.6	4	1	2234	7.1			"n"	"PHILIPPINES"	"BATANGAS"	"LAGADLARIN"	13.62813333	121.21525	19.688									3.37		5														
	1994	11	14	19	15	30.6	4	1	2234	7.1			"n"	"PHILIPPINES"	"BATANGAS"	"BATANGAS PORT"	13.75405556	121.0442667	25.461									1.25		5														
	1994	11	14	19	15	30.6	4	1	2234	7.1			"n"	"PHILIPPINES"	"ORIENTAL MINDORO"	"BACO"	13.41252778	121.1246944	13.923									3.57		5														
	1994	11	14	19	15	30.6	4	1	2234	7.1			"n"	"PHILIPPINES"	"ORIENTAL MINDORO"	"PAMPISAN"	13.40995	121.1374333	14.838									2.17		5														
	1994	11	14	19	15	30.6	4	1	2234	7.1			"n"	"PHILIPPINES"	"ORIENTAL MINDORO"	"VERDE ISLAND"	13.55000833	121.0945278	4.066									3.55		5														
	1994	11	14	19	15	30.6	4	1	2234	7.1			"n"	"PHILIPPINES"	"ORIENTAL MINDORO"	"WAWA"	13.40445	121.1406389	15.539									1.92		5														
	1994	11	14	19	15	30.6	4	1	2234	7.1			"n"	"PHILIPPINES"	"ORIENTAL MINDORO"	"BARUYAN RIVER"	13.38221667	121.14155	17.74									0.75		5														
	1994	11	14	19	15	30.6	4	1	2234	7.1			"n"	"PHILIPPINES"	"ORIENTAL MINDORO"	"BALETE"	13.41652778	121.1600556	15.67									2.11		5														
	1994	11	14	19	15	30.6	4	1	2234	7.1			"n"	"PHILIPPINES"	"BATANGAS"	"LAGADLARIN"	13.62841667	121.2135	19.553									3.63		5														
	1994	11	14	19	15	30.6	4	1	2234	7.1			"n"	"PHILIPPINES"	"ORIENTAL MINDORO"	"CHARICO"	13.41011111	121.1521111	15.7									2.31		5														
	1994	11	14	19	15	30.6	4	1	2234	7.1			"n"	"PHILIPPINES"	"ORIENTAL MINDORO"	"IBABA"	13.41444444	121.1255556	13.777									1.97		5														
	1994	11	14	19	15	30.6	4	1	2234	7.1			"n"	"PHILIPPINES"	"ORIENTAL MINDORO"	"WAWA ISLAND"	13.41393333	121.0479	12.461									3.82		5														
	1994	11	14	19	15	30.6	4	1	2234	7.1			"n"	"PHILIPPINES"	"ORIENTAL MINDORO"	"WAWA"	13.40780556	121.143	15.357									2.07		5														
	1994	11	14	19	15	30.6	4	1	2234	7.1			"n"	"PHILIPPINES"	"BATANGAS"	"LOBO"	13.63475	121.1968833	18.575									2.68		5														
	1994	11	14	19	15	30.6	4	1	2234	7.1			"n"	"PHILIPPINES"	"ORIENTAL MINDORO"	"PUERTO GALERA"	13.5	120.956	12.331											1										1				
	1994	11	14	19	15	30.6	4	1	2234	7.1			"n"	"PHILIPPINES"	"ORIENTAL MINDORO"	"PAMPISAN"	13.41226667	121.1285667	14.142									2.71		5														
	1994	11	14	19	15	30.6	4	1	2234	7.1			"n"	"PHILIPPINES"	"ORIENTAL MINDORO"	"CHARICO"	13.41025	121.1558056	15.926									2.36		5														
	1994	11	14	19	15	30.6	4	1	2234	7.1			"n"	"PHILIPPINES"	"ORIENTAL MINDORO"	"WAWA"	13.40780556	121.143	15.357									2.59		5														
	1994	11	14	19	15	30.6	4	1	2234	7.1			"n"	"PHILIPPINES"	"ORIENTAL MINDORO"	"WAWA"	13.40883333	121.1442778	15.336									2.78		5														
	1994	11	14	19	15	30.6	4	1	2234	7.1			"n"	"PHILIPPINES"	"ORIENTAL MINDORO"	"BARUYAN"	13.40628333	121.1378	15.208									2.77		5														
	1994	11	14	19	15	30.6	4	1	2234	7.1			"n"	"PHILIPPINES"	"ORIENTAL MINDORO"	"PAMPISAN"	13.4101	121.1328167	14.573									2.99		5														
	1994	11	14	19	15	30.6	4	1	2234	7.1			"n"	"PHILIPPINES"	"ORIENTAL MINDORO"	"WAWA"	13.40727778	121.14075	15.277									4.44		5			6	1						1		1		
	1994	11	14	19	15	30.6	4	1	2234	7.1			"n"	"PHILIPPINES"	"ORIENTAL MINDORO"	"PACHUKA"	13.41652778	121.1600556	15.67									2.4		5														
	1994	11	14	19	15	30.6	4	1	2234	7.1			"n"	"PHILIPPINES"	"ORIENTAL MINDORO"	"CALAPAN PORT"	13.43111111	121.1944444	17.272									3.96		5										1				
	1994	11	14	19	15	30.6	4	1	2234	7.1			"n"	"PHILIPPINES"	"ORIENTAL MINDORO"	"BACO"	13.41252778	121.1246944	13.923									3.74		5														
	1994	11	14	19	15	30.6	4	1	2234	7.1			"n"	"PHILIPPINES"	"ORIENTAL MINDORO"	"BACO ISLAND"	13.46941667	121.1593333	11.736									3.54		5														
	1994	11	14	19	15	30.6	4	1	2234	7.1			"n"	"PHILIPPINES"	"ORIENTAL MINDORO"	"WAWA ISLAND"	13.41333333	121.0469167	12.544									3.51		5														
	1994	11	14	19	15	30.6	4	1	2234	7.1			"n"	"PHILIPPINES"	"ORIENTAL MINDORO"	"WAWA"	13.40727778	121.14075	15.277									2.48		5														
	1994	11	14	19	15	30.6	4	1	2234	7.1			"n"	"PHILIPPINES"	"ORIENTAL MINDORO"	"MALAYLAY"	13.4075	121.0711111	13.007									1.65		5			24	1	4	1				1		1		
	1994	11	14	19	15	30.6	4	1	2234	7.1			"n"	"PHILIPPINES"	"ORIENTAL MINDORO"	"MALAYLAY"	13.41876667	121.09435	12.12									1.22		5														
	1994	11	14	19	15	30.6	4	1	2234	7.1			"n"	"PHILIPPINES"	"ORIENTAL MINDORO"	"BACO"	13.41333333	121.1218167	13.706									1.46		5														
	1994	11	14	19	15	30.6	4	1	2234	7.1			"n"	"PHILIPPINES"	"ORIENTAL MINDORO"	"PAMPISAN"	13.41325	121.1269667	13.965									3.9		5														
	1994	11	14	19	15	30.6	4	1	2234	7.1			"n"	"PHILIPPINES"	"ORIENTAL MINDORO"	"WAWA"	13.40445	121.1406389	15.539									1.19		5														
	1994	11	14	19	15	30.6	4	1	2234	7.1			"n"	"PHILIPPINES"	"ORIENTAL MINDORO"	"WAWA"	13.40813889	121.1426944	15.308									1.95		5														
	1994	11	14	19	15	30.6	4	1	2234	7.1			"n"	"PHILIPPINES"	"ORIENTAL MINDORO"	"CHARICO"	13.41011111	121.1521111	15.7									1.97		5														
	1994	11	14	19	15	30.6	4	1	2234	7.1			"n"	"PHILIPPINES"	"ORIENTAL MINDORO"	"BALETE"	13.41652778	121.1600556	15.67									2.39		5														
	1994	11	14	19	15	30.6	4	1	2234	7.1			"n"	"PHILIPPINES"	"ORIENTAL MINDORO"	"VERDE ISLAND"	13.23044444	121.0915278	32.696									2.81		5														
	1994	11	14	19	15	30.6	4	1	2234	7.1			"n"	"PHILIPPINES"	"ORIENTAL MINDORO"	"BACO MEDIA ISLAND"	13.47458333	121.1643333	11.923									1.64		5														
	1994	11	14	19	15	30.6	4	1	2234	7.1			"n"	"PHILIPPINES"	"BATANGAS"	"BARANGAY SAWANG"	13.6276	121.22575	20.592									4.2		5														
	1994	11	14	19	15	30.6	4	1	2234	7.1			"n"	"PHILIPPINES"	"ORIENTAL MINDORO"	"CALAPAN"	13.41736111	121.18375	17.367									3.14		5														
	1994	11	14	19	15	30.6	4	1	2234	7.1			"n"	"PHILIPPINES"	"ORIENTAL MINDORO"	"VILLAFLOR"	13.4494	121.0047667	10.74									2.9		5														
	1994	11	14	19	15	30.6	4	1	2234	7.1			"n"	"PHILIPPINES"	"ORIENTAL MINDORO"	"CHARICO"	13.41011111	121.1521111	15.7									1.32		5														
	1994	12	28	12	19	23	4	1	2235	7.8			"n"	"JAPAN"	"AOMORI"	"HACHINOHE"	40.533	141.533	159.803	28	12	55	0	36				0.5		2														
	1994	12	28	12	19	23	4	1	2235	7.8			"n"	"JAPAN"	"HOKKAIDO"	"HAKODATE"	41.7187	140.7247	262.223									0.22		2														
	1994	12	28	12	19	23	4	1	2235	7.8			"n"	"JAPAN"	"IWATE"	"OFUNATO"	39.017	141.75	220.177	28	12	59	0	40				0.27		2														
	1994	12	28	12	19	23	4	1	2235	7.8			"n"	"JAPAN"	"CHIBA"	"CHOSHI"	35.75	140.867	575.232									0.09		2														
	1994	12	28	12	19	23	4	1	2235	7.8			"n"	"JAPAN"	"IWATE"	"MIYAKO"	39.65	141.983	156.323	28	12	45	0	26				0.5		2														
	1994	12	28	12	19	23	4	1	2235	7.8			"n"	"JAPAN"	"MIYAGI"	"AYUKAWA"	38.3	141.5	297.193	28	13	10	0	51				0.46		2														
	1994	12	28	12	19	23	4	1	2235	7.8			"n"	"JAPAN"	"HOKKAIDO"	"HAKODATEKO"	41.783	140.733	265.218									0.22		2														
	1994	12	28	12	19	23	4	1	2235	7.8			"n"	"JAPAN"	"HOKKAIDO"	"HANASAKI"	43.2781	145.5678	353.946	28	13	19	1	0				0.19		2														
	1994	12	28	12	19	23	4	1	2235	7.8			"n"	"JAPAN"	"HOKKAIDO"	"KUSHIRO"	42.9756	144.3714	283.471	28	13	10	0	51				0.22		2														
	1994	12	28	12	19	23	4	1	2235	7.8			"n"	"JAPAN"	"FUKUSHIMA"	"ONAHAMA"	36.933	140.9	454.897									0.15		2														
	1994	12	28	12	19	23	4	1	2235	7.8			"n"	"JAPAN"	"HOKKAIDO"	"URAKAWA"	42.167	142.767	190.349	28	12	58	0	39				0.2		2														
	1994	12	28	12	19	23	4	1	2235	7.8			"n"	"JAPAN"	"AOMORI"	"HACHINOHE(KENSETSUKYOKU)"	40.517	141.517	161.177									0.5		2														
	1994	12	28	12	19	23	4	1	2235	7.8			"n"	"JAPAN"	"CHIBA"	"MERA"	34.9189	139.825	698.091									0.14		2														
	1995	1	16	20	46	52.1	4	1	2236	6.9			"n"	"JAPAN"	"HYOGO"	"KOBE"	34.683	135.183	18.761									0.04		2														
	1995	1	16	20	46	52.1	4	1	2236	6.9			"n"	"JAPAN"	"HYOGO"	"EI"	34.467	134.833	21.309									0.34		2														
	1995	4	7	22	6	56.8	4	1	2240	7.4			"n"	"USA TERRITORY"	"AS"	"PAGO PAGO, AMERICAN SAMOA"	-14.2766	-170.689	322.388									0.09		2														
	1995	4	7	22	6	56.8	4	1	2240	7.4			"n"	"NIUE"		"NIUE"	-19.053	-169.921	573.813									0.03		2														
	1995	4	21	0	34	46	4	1	2241	7.2			"n"	"PHILIPPINES"		"LEGASPI"	13.15	123.75	232.598									0.05		2														
	1995	5	13	8	47	12.7	-1	1	2244	6.6			"y"	"GREECE"		"GREECE"	40.149	21.695	0																									
	1995	5	14	11	33	21.1	4	3	2245	6.9			"n"	"EAST TIMOR"		"MARINIR VILLAGE, TIMOR ISLAND"	-8.54	125.53	53.848									4	120	5														
	1995	5	14	11	33	21.1	4	3	2245	6.9			"n"	"EAST TIMOR"		"DILI, TIMOR ISLAND"	-8.55	125.57	58.379									1.5		1			11	1			19	1		1		2		
	1995	5	16	20	12	44.2	4	1	2246	7.7			"n"	"FIJI"		"SUVA, KING'S WHARF"	-18.1342	178.4236	1039.28									0.03		2														
	1995	5	16	20	12	44.2	4	1	2246	7.7			"n"	"FIJI"		"LAUTOKA"	-17.6	177.433	988.296									0.03		2														
	1995	5	16	20	12	44.2	4	1	2246	7.7			"n"	"VANUATU"		"PORT VILA, EFATE ISLAND"	-17.7553	168.3077	604.793									0.2		2														
	1995	5	16	20	12	44.2	4	1	2246	7.7			"n"	"SAMOA"		"APIA, UPOLU ISLAND"	-13.8268	-171.7613	2184.69									0.02		2														
	1995	5	16	20	12	44.2	4	1	2246	7.7			"n"	"NEW CALEDONIA"		"MARE ISLAND"	-21.548	167.877	263.821											1														
	1995	5	16	20	12	44.2	4	1	2246	7.7			"n"	"AUSTRALIA"		"NEW SOUTH WALES"														2														
	1995	5	16	20	12	44.2	4	1	2246	7.7			"n"	"TONGA"		"NUKUALOFA (NUKU'ALOFA)"	-21.138	-175.1815	1552.874									0.02		2														
	1995	5	16	20	12	44.2	4	1	2246	7.7			"n"	"COOK ISLANDS"		"RAROTONGA"	-21.2	-159.783	3129.234									0.02		2														
	1995	5	16	20	12	44.2	4	1	2246	7.7			"n"	"USA TERRITORY"	"AS"	"PAGO PAGO, AMERICAN SAMOA"	-14.2766	-170.689	2261.407									0.05		2														
	1995	5	27	13	3	52.6	4	1	2247	7.1			"n"	"RUSSIA"	"SAKHALIN"	"SABO, SAKHALIN IS."	53.117	143.1	57.333									0.1																
	1995	5	27	13	3	52.6	4	1	2247	7.1			"n"	"RUSSIA"	"SAKHALIN"	"VAL, SAKHALIN IS."	52.35	143.08	35.485																									
	1995	6	15	0	15	48.7	4	3	2248	6.5			"n"	"GREECE"		"ERATINI"	38.367	22.233	5.773									1		1		"F"												
	1995	6	15	0	15	48.7	4	3	2248	6.5			"n"	"GREECE"		"AIYION"	38.25	22.083	24.224									1		1														
	1995	7	30	5	11	23.6	4	1	2249	8			"n"	"USA"	"AK"	"KODIAK, AK"	57.730313	-152.513871	11724.275									0.05		2														
	1995	7	30	5	11	23.6	4	1	2249	8			"n"	"USA"	"WA"	"NEAH BAY, WA"	48.367	-124.612	9605.324									0.03		2														
	1995	7	30	5	11	23.6	4	1	2249	8			"n"	"USA"	"CA"	"SAN DIEGO, CA"	32.715	-117.174	7954.289									0.05		2														
	1995	7	30	5	11	23.6	4	1	2249	8			"n"	"USA"	"CA"	"SANTA MONICA, CA"	34.008	-118.5	8142.847	30	17	44	12	33				0.13		2														
	1995	7	30	5	11	23.6	4	1	2249	8			"n"	"CHILE"	"COPIAPO"	"CALDERA"	-27.0644	-70.8247	416.025									0.85		2														
	1995	7	30	5	11	23.6	4	1	2249	8			"n"	"USA"	"HI"	"HONOLULU, OAHU, HI"	21.3067	-157.867	10694.32									0.08		2														
	1995	7	30	5	11	23.6	4	1	2249	8			"n"	"JAPAN"	"KANAGAWA"	"YOKOHAMA"	35.45	139.65	16839.888									0.04		2														
	1995	7	30	5	11	23.6	4	1	2249	8			"n"	"JAPAN"	"KOCHI"	"MUROTOMISAKI"	33.267	134.167	17394.483									0.1		2														
	1995	7	30	5	11	23.6	4	1	2249	8			"n"	"JAPAN"	"KOCHI"	"TOSA-SHIMIZU"	32.7792	132.9589	17518.848									0.09		2														
	1995	7	30	5	11	23.6	4	1	2249	8			"n"	"JAPAN"	"SHIZUOKA"	"MAISAKA"	34.683	137.617	17042.361									0.05		2														
	1995	7	30	5	11	23.6	4	1	2249	8			"n"	"CANADA"	"BC"	"PORT ALBERNI, BRITISH COLUMBIA"	49.233	-124.817	9680.354	30	20	49	15	38	31	17	48	0.13		2	120	"F"												
	1995	7	30	5	11	23.6	4	1	2249	8			"n"	"CHILE"	"ANTOFAGASTA"	"CALENTA PUNTA GRANDE"	-25.09652	-70.50749	195.759									0.6		2														
	1995	7	30	5	11	23.6	4	1	2249	8			"n"	"CHILE"	"VALPARAISO"	"JUAN FERNANDEZ ISLANDS "	-33.636017	-78.829881	1413.086									0.2		2														
	1995	7	30	5	11	23.6	4	1	2249	8			"n"	"USA"	"HI"	"NAWILIWILI, KAUAI, HI"	21.927	-159.36	10863.396									0.06		2														
	1995	7	30	5	11	23.6	4	1	2249	8			"n"	"VANUATU"		"PORT VILA, EFATE ISLAND"	-17.7553	168.3077	12199.302									0.16		2														
	1995	7	30	5	11	23.6	4	1	2249	8			"n"	"CHILE"	"CONCEPCION"	"TALCAHUANO"	-36.6953	-73.1063	1504.935									0.53		2														
	1995	7	30	5	11	23.6	4	1	2249	8			"n"	"CHILE"	"ARICA"	"ARICA"	-18.4758	-70.3232	538.555									0.75		2														
	1995	7	30	5	11	23.6	4	1	2249	8			"n"	"CHILE"	"ISLA DE PASCUA"	"EASTER ISLAND"	-27.15	-109.45	3951.8									0.05		2														
	1995	7	30	5	11	23.6	4	1	2249	8			"n"	"JAPAN"	"BONIN IS, TOKYO"	"CHICHIJIMA ISLAND"	27.0939	142.1947	16739.401									0.13		2														
	1995	7	30	5	11	23.6	4	1	2249	8			"n"	"JAPAN"	"IWATE"	"OFUNATO"	39.017	141.75	16534.282									0.13		2														
	1995	7	30	5	11	23.6	4	1	2249	8			"n"	"JAPAN"	"MIYAGI"	"AYUKAWA"	38.3	141.5	16582.462									0.17		2														
	1995	7	30	5	11	23.6	4	1	2249	8			"n"	"JAPAN"	"TOKYO"	"YAENE, HACHIJO ISLAND"	33.1	139.767	16897.14									0.07		2														
	1995	7	30	5	11	23.6	4	1	2249	8			"n"	"JAPAN"	"WAKAYAMA"	"KUSHIMOTO"	33.467	135.783	17244.703									0.23		2														
	1995	7	30	5	11	23.6	4	1	2249	8			"n"	"FIJI"		"LAUTOKA"	-17.6	177.433	11384.343									0.05		2														
	1995	7	30	5	11	23.6	4	1	2249	8			"n"	"USA"	"CA"	"PORT SAN LUIS, CA"	35.168	-120.753	8381.313	30	18	22	13	11				0.12		2														
	1995	7	30	5	11	23.6	4	1	2249	8			"n"	"CANADA"	"BC"	"BAMFIELD, BRITISH COLUMBIA"	48.837	-125.137	9668.91	30	20	21	15	10	31	18	0	0.06		2		"R"												
	1995	7	30	5	11	23.6	4	1	2249	8			"y"	"CANADA"	"BC"	"TOFINO (CLAYOQUOT),BRITISH COLUMBIA"	49.153	-125.913	9734.856									0.02		2	25													
	1995	7	30	5	11	23.6	4	1	2249	8			"n"	"CANADA"	"BC"	"WINTER HARBOR, BRITISH COLUMBIA"	50.513	-128.028	9948.544						31	15	36	0.07		2	30													
	1995	7	30	5	11	23.6	4	1	2249	8			"n"	"JAPAN"	"IWATE"	"MIYAKO"	39.65	141.983	16490.128									0.28		2														
	1995	7	30	5	11	23.6	4	1	2249	8			"n"	"USA"	"CA"	"CRESCENT CITY, CA"	41.7456	-124.184	9093.003									0.11		2														
	1995	7	30	5	11	23.6	4	1	2249	8			"n"	"AUSTRALIA"		"GOLD COAST, QUEENSLAND"	-27.97	153.57	12640.463									0.05		2														
	1995	7	30	5	11	23.6	4	1	2249	8			"n"	"CHILE"	"IQUIQUE"	"IQUIQUE"	-20.217	-70.156	346.096									0.32		2														
	1995	7	30	5	11	23.6	4	1	2249	8			"n"	"USA"	"CA"	"LOS ANGELES, CA"	33.719	-118.272	8105.36	30	18	6	12	55				0.05		2														
	1995	7	30	5	11	23.6	4	1	2249	8			"n"	"FRENCH POLYNESIA"		"RAITEA ISLAND"	-16.833	-151.5	8415.991									0.15																
	1995	7	30	5	11	23.6	4	1	2249	8			"n"	"USA"	"AK"	"SAND POINT, AK"	55.337	-160.502	12121.698	30	23	25	18	14				0.11		2														
	1995	7	30	5	11	23.6	4	1	2249	8			"n"	"USA"	"AK"	"YAKUTAT, AK"	59.55	-139.733	11128.882	30	23	0	17	49				0.06		2														
	1995	7	30	5	11	23.6	4	1	2249	8			"n"	"JAPAN"	"HOKKAIDO"	"HANASAKI"	43.2781	145.5678	16060.645									0.21		2														
	1995	7	30	5	11	23.6	4	1	2249	8			"n"	"JAPAN"	"MIYAGI"	"KESENNUMA"	38.9	141.57	16553.487									0.15		2														
	1995	7	30	5	11	23.6	4	1	2249	8			"n"	"JAPAN"	"OKINAWA"	"HIRARA"	24.8	125.283	18440.087									0.09		2														
	1995	7	30	5	11	23.6	4	1	2249	8			"n"	"USA"	"HI"	"KAHULUI, MAUI, HI"	20.895	-156.477	10543.512									0.35		2														
	1995	7	30	5	11	23.6	4	1	2249	8			"n"	"USA"	"AK"	"SITKA, AK"	57.052	-135.342	10765.161									0.05		2														
	1995	7	30	5	11	23.6	4	1	2249	8			"n"	"SAMOA"		"APIA, UPOLU ISLAND"	-13.8268	-171.7613	10548.548									0.21		2														
	1995	7	30	5	11	23.6	4	1	2249	8			"n"	"JAPAN"	"CHIBA"	"CHOSHI"	35.75	140.867	16724.695									0.15		2														
	1995	7	30	5	11	23.6	4	1	2249	8			"n"	"JAPAN"	"KAGOSHIMA"	"MAKURAZAKI"	31.267	130.3	17811.113									0.11		2														
	1995	7	30	5	11	23.6	4	1	2249	8			"n"	"JAPAN"	"KOCHI"	"KOCHI"	33.55	133.55	17438.005									0.08		2														
	1995	7	30	5	11	23.6	4	1	2249	8			"n"	"JAPAN"	"WAKAYAMA"	"SHIMIZU"	35.017	138.517	16952.67									0.04		2														
	1995	7	30	5	11	23.6	4	1	2249	8			"n"	"USA"	"OR"	"PORT ORFORD, OR"	42.737	-124.497	9185.038	30	19	47	14	36				0.05		2														
	1995	7	30	5	11	23.6	4	1	2249	8			"n"	"CANADA"	"BC"	"VICTORIA, BRITISH COLUMBIA"	48.425	-123.372	9541.385						31	9	30	0.04		2	22	"R"												
	1995	7	30	5	11	23.6	4	1	2249	8			"n"	"CHILE"	"ANTOFAGASTA"	"CALETA BLANCO"	-24.373	-70.551	117.368									2.45		5														
	1995	7	30	5	11	23.6	4	1	2249	8			"n"	"MEXICO"		"SOCORRO ISLAND"	18.73	-111.02	6421.936									0.11		2														
	1995	7	30	5	11	23.6	4	1	2249	8			"n"	"FRENCH POLYNESIA"	"MARQUESAS ISLANDS"	"TAHANKA BAY, MARQUESAS ISLAND"	-9	-139.5	7505.423									3	250	1	15								0.131	1				
	1995	7	30	5	11	23.6	4	1	2249	8			"n"	"USA TERRITORY"	"UM"	"WAKE ISLAND"	19.29	166.6183	14146.889									0.06		2														
	1995	7	30	5	11	23.6	4	1	2249	8			"n"	"JAPAN"	"AOMORI"	"HACHINOHE"	40.533	141.533	16488.106									0.29		2														
	1995	7	30	5	11	23.6	4	1	2249	8			"n"	"CANADA"	"BC"	"PORT HARDY, BRITISH COLUMBIA"	50.722	-127.488	9933.567									0.04		2	14	"R"												
	1995	7	30	5	11	23.6	4	1	2249	8			"n"	"USA"	"AK"	"UNALASKA, DUTCH HARBOR, AK"	53.883	-166.533	12471.707									0.08		2														
	1995	7	30	5	11	23.6	4	1	2249	8			"n"	"TONGA"		"NUKUALOFA (NUKU'ALOFA)"	-21.138	-175.1815	10515.764									0.07		2														
	1995	7	30	5	11	23.6	4	1	2249	8			"n"	"USA TERRITORY"	"AS"	"PAGO PAGO, AMERICAN SAMOA"	-14.2766	-170.689	10422.573									0.17		2														
	1995	7	30	5	11	23.6	4	1	2249	8			"n"	"FRENCH POLYNESIA"		"PAPEETE, TAHITI"	-17.5331	-149.5726	8196.811									0.05		2														
	1995	7	30	5	11	23.6	4	1	2249	8			"n"	"CHILE"	"VALPARAISO"	"VALPARAISO"	-33.033	-71.633	1082.197									0.33		2														
	1995	7	30	5	11	23.6	4	1	2249	8			"n"	"MEXICO"	"BAJA CALIFORNIA SUR"	"CABO SAN LUCAS"	22.883	-109.9	6672.412									0.05		2														
	1995	7	30	5	11	23.6	4	1	2249	8			"n"	"JAPAN"	"MIE"	"TOBA"	34.483	136.817	17119.018									0.08		2														
	1995	7	30	5	11	23.6	4	1	2249	8			"n"	"JAPAN"	"MIYAZAKI"	"HOSOSHIMA"	32.433	131.667	17645.957									0.09		2														
	1995	7	30	5	11	23.6	4	1	2249	8			"n"	"JAPAN"	"OKINAWA"	"NAHA"	26.217	127.667	18188.124									0.09		2														
	1995	7	30	5	11	23.6	4	1	2249	8			"n"	"JAPAN"	"TOKUSHIMA"	"KOMATSUSHIMA"	34.017	134.583	17330.335									0.08		2														
	1995	7	30	5	11	23.6	4	1	2249	8			"n"	"JAPAN"	"TOKYO"	"OKADA"	34.783	139.383	16884.521									0.07		2														
	1995	7	30	5	11	23.6	4	1	2249	8			"n"	"JAPAN"	"WAKAYAMA"	"SHIRAHAMA"	33.683	135.383	17272.634									0.11		2														
	1995	7	30	5	11	23.6	4	1	2249	8			"n"	"JAPAN"	"WAKAYAMA"	"URAGAMI"	33.55	135.9	17231.562									0.15		2														
	1995	7	30	5	11	23.6	4	1	2249	8			"n"	"JAPAN"	"WAKAYAMA"	"WAKAYAMA"	34.217	135.15	17273.595									0.04		2														
	1995	7	30	5	11	23.6	4	1	2249	8			"n"	"USA"	"CA"	"POINT REYES, CA"	37.997	-122.975	8739.626	30	18	39	13	28				0.09		2														
	1995	7	30	5	11	23.6	4	1	2249	8			"n"	"JAPAN"	"SHIZUOKA"	"UCHIURA"	35.017	138.883	16920.797									0.06		2														
	1995	7	30	5	11	23.6	4	1	2249	8			"n"	"USA"	"HI"	"HILO, HAWAII, HI"	19.7303	-155.0553	10356.16									0.38		2														
	1995	7	30	5	11	23.6	4	1	2249	8			"n"	"FRENCH POLYNESIA"		"HIVA OA ISLAND, TUHAUKU BAY"	-9.805	-139.035	7425.378									1.5																
	1995	7	30	5	11	23.6	4	1	2249	8			"n"	"FRENCH POLYNESIA"	"MARQUESAS ISLANDS"	"NUKU HIVA ISLAND, MARQUESAS ISLANDS"	-8.9148	-140.0958	7569.817									0.75		2														
	1995	7	30	5	11	23.6	4	1	2249	8			"n"	"USA"	"AK"	"SEWARD, AK"	60.119	-149.427	11648.03	30	23	5	17	54				0.05		2														
	1995	7	30	5	11	23.6	4	1	2249	8			"n"	"USA"	"AK"	"SHEMYA ISLAND, AK"	52.731	174.103	13753.631									0.1		2														
	1995	7	30	5	11	23.6	4	1	2249	8			"n"	"USA"	"AK"	"ADAK, SWEEPER COVE, AK"	51.863	-176.632	13124.618	30	23	35	18	24				0.15		2														
	1995	7	30	5	11	23.6	4	1	2249	8			"n"	"CHILE"	"ANTOFAGASTA"	"ANTOFAGASTA"	-23.65	-70.404	36.125									1.4		2														
	1995	7	30	5	11	23.6	4	1	2249	8			"n"	"JAPAN"	"CHIBA"	"MERA"	34.9189	139.825	16841.498									0.13		2														
	1995	7	30	5	11	23.6	4	1	2249	8			"n"	"JAPAN"	"EHIME"	"UWAJIMA"	33.233	132.55	17537.464									0.04		2														
	1995	7	30	5	11	23.6	4	1	2249	8			"n"	"JAPAN"	"MIE"	"OWASE"	34.083	136.2	17186.92									0.13		2														
	1995	7	30	5	11	23.6	4	1	2249	8			"n"	"JAPAN"	"MIYAZAKI"	"ABURATSU"	31.583	131.417	17699.284									0.13		2														
	1995	7	30	5	11	23.6	4	1	2249	8			"n"	"JAPAN"	"SHIZUOKA"	"OMAEZAKI"	34.6083	138.2222	16991.957									0.14		2														
	1995	7	30	5	11	23.6	4	1	2249	8			"n"	"JAPAN"	"FUKUSHIMA"	"ONAHAMA"	36.933	140.9	16682.456									0.18		2														
	1995	7	30	5	11	23.6	4	1	2249	8			"n"	"CHILE"	"ANTOFAGASTA"	"LA RINCONADA, ANTOFAGASTA"	-23.4646	-70.5025	25.39									2.39	300	5										1				
	1995	7	30	5	11	23.6	4	1	2249	8			"n"	"CHILE"	"ISLA DE PASCUA"	"EASTER ISLAND"	-27.15	-109.45	3951.8									0.16		2														
	1995	7	30	5	11	23.6	4	1	2249	8			"n"	"CHILE"	"TOCOPILLA"	"TOCOPILLA"	-22.0938	-70.2117	138.263									0.35		2														
	1995	7	30	5	11	23.6	4	1	2249	8			"n"	"JAPAN"	"HOKKAIDO"	"HAKODATE"	41.7187	140.7247	16494.665									0.18		2														
	1995	7	30	5	11	23.6	4	1	2249	8			"n"	"JAPAN"	"HOKKAIDO"	"KUSHIRO"	42.9756	144.3714	16163.369									0.13		2														
	1995	7	30	5	11	23.6	4	1	2249	8			"n"	"USA"	"CA"	"ARENA COVE, CA"	38.914	-123.711	8855.2	30	18	30	13	19				0.07		2														
	1995	7	30	5	11	23.6	4	1	2249	8			"n"	"USA"	"HI"	"PORT ALLEN, KAUAI, HI"	21.91	-159.58	10883.778									0.08		2														
	1995	7	30	5	11	23.6	4	1	2249	8			"n"	"USA"	"CA"	"MONTEREY, CA"	36.605	-121.888	8564.637									0.04		2														
	1995	8	16	10	27	28.6	4	1	2250	7.7			"n"	"PAPUA NEW GUINEA"	"EAST NEW BRITAIN"	"RABAUL, NEW BRITAIN"	-4.22	152.18	282.099									0.28		2														
	1995	8	16	10	27	28.6	4	1	2250	7.7			"n"	"MARSHALL ISLANDS, REP. OF"	"MH"	"KWAJALEIN, MARSHALL ISLANDS"	8.733	167.733	2201.263									0.06		2														
	1995	9	14	14	4	31.4	3	1	2251	7.4			"n"	"MEXICO"	"COLIMA"	"MANZANILLO"	19.05	-104.333	657.618									0.21		2														
	1995	10	9	15	35	53.9	4	1	2252	8			"n"	"MEXICO"	"BAJA CALIFORNIA SUR"	"CABO SAN LUCAS"	22.883	-109.9	728.109									0.26		2														
	1995	10	9	15	35	53.9	4	1	2252	8			"n"	"FRENCH POLYNESIA"	"MARQUESAS ISLANDS"	"HIVA OA ISLAND, MARQUESAS ISLANDS"	-9.8049	-139.0347	4979.778									0.5		2														
	1995	10	9	15	35	53.9	4	1	2252	8			"n"	"FRENCH POLYNESIA"	"MARQUESAS ISLANDS"	"NUKU HIVA ISLAND, MARQUESAS ISLANDS"	-8.9148	-140.0958	5008.13									0.15		2														
	1995	10	9	15	35	53.9	4	1	2252	8			"n"	"MEXICO"		"PARAISO"	18.8755	-103.993	29.887									1.76		5														
	1995	10	9	15	35	53.9	4	1	2252	8			"n"	"USA"	"HI"	"KAWAIHAE, HAWAII, HI"	20.0366	-155.829	5396.545									0.06		2														
	1995	10	9	15	35	53.9	4	1	2252	8			"n"	"AUSTRALIA"		"MOOLOOLABA"	-26.68	153.12	12165.343									0.03		2														
	1995	10	9	15	35	53.9	4	1	2252	8			"n"	"USA"	"HI"	"NAWILIWILI, KAUAI, HI"	21.927	-159.36	5732.061									0.06		2														
	1995	10	9	15	35	53.9	4	1	2252	8			"n"	"USA TERRITORY"	"AS"	"PAGO PAGO, AMERICAN SAMOA"	-14.2766	-170.689	8165.411									0.19		2														
	1995	10	9	15	35	53.9	4	1	2252	8			"n"	"FRENCH POLYNESIA"		"PAPEETE, TAHITI"	-17.5331	-149.5726	6403.35									0.04		2														
	1995	10	9	15	35	53.9	4	1	2252	8			"n"	"MEXICO"	"JALISCO"	"BOCA DE IGUANAS"	19.3	-104.81	69.172									5.1	30	5										1		2		
	1995	10	9	15	35	53.9	4	1	2252	8			"n"	"MEXICO"	"JALISCO"	"EL TECUAN"	19.31	-104.94	82.297									3.8	70	5										1				
	1995	10	9	15	35	53.9	4	1	2252	8			"n"	"MEXICO"	"COLIMA"	"MANZANILLO 1"	19.12	-104.38	19.772									3.74		5														
	1995	10	9	15	35	53.9	4	1	2252	8			"n"	"MEXICO"	"COLIMA"	"PLAYA DE ORO"	19.13	-104.51	33.153									4.08		5														
	1995	10	9	15	35	53.9	4	1	2252	8			"n"	"MEXICO"	"COLIMA"	"MANZANILLO 2"	19.16	-104.35	19.18									3		5														
	1995	10	9	15	35	53.9	4	1	2252	8			"n"	"MEXICO"	"JALISCO"	"CAREYES"	19.44	-105.04	97.586									3.5	115	5										1				
	1995	10	9	15	35	53.9	4	1	2252	8			"n"	"MEXICO"		"SOCORRO ISLAND"	18.73	-111.02	718.88									0.1		2														
	1995	10	9	15	35	53.9	4	1	2252	8			"n"	"AUSTRALIA"		"SOUTHPORT"	-27.97	153.33	12174.269									0.02		2														
	1995	10	9	15	35	53.9	4	1	2252	8			"n"	"MEXICO"	"COLIMA"	"SANTIAGO BAY - VIDA DEL MAR RESORT"	19.1	-104.4	21.118									10.9		5														
	1995	10	9	15	35	53.9	4	1	2252	8			"n"	"USA"	"HI"	"HILO, HAWAII, HI"	19.7303	-155.0553	5321.164									0.19		2														
	1995	10	9	15	35	53.9	4	1	2252	8			"n"	"USA"	"HI"	"KAHULUI, MAUI, HI"	20.895	-156.477	5450.576									0.17		2														
	1995	10	9	15	35	53.9	4	1	2252	8			"n"	"MEXICO"	"JALISCO"	"PUNTA CHALACATEPEC"	19.68	-105.26	130.657									2.9	100	5										1				
	1995	10	9	15	35	53.9	4	1	2252	8			"n"	"MEXICO"	"COLIMA"	"LA MANZANILLA"	19.28	-104.79	66.383									4	172	5										1				
	1995	10	9	15	35	53.9	4	1	2252	8			"n"	"MEXICO"	"JALISCO"	"SAN MATEO"	19.567	-105.083	108.289									4.9		5														
	1995	10	9	15	35	53.9	4	1	2252	8			"n"	"MEXICO"	"JALISCO"	"CHAMELA 2"	19.58	-105.11	111.457									4.9	40	5														
	1995	10	9	15	35	53.9	4	1	2252	8			"n"	"ECUADOR"	"GALAPAGOS ISLANDS"	"BALTRA ISLAND"	-0.433	-90.283	2638.468									0.04		2														
	1995	10	9	15	35	53.9	4	1	2252	8			"n"	"MEXICO"	"JALISCO"	"MELAQUE"	19.22	-104.71	56.18									4.5	41	5										1				
	1995	10	9	15	35	53.9	4	1	2252	8			"n"	"MEXICO"	"JALISCO"	"CHAMELA"	19.53	-105.08	105.938									3.2	30	5										1				
	1995	10	9	15	35	53.9	4	1	2252	8			"n"	"MEXICO"	"JALISCO"	"PERULA"	19.59	-105.12	112.929									3.4	40	5										1				
	1995	10	9	15	35	53.9	4	1	2252	8			"n"	"MEXICO"	"JALISCO"	"PUERTO VALLARTA"	20.622	-105.232	204.12											1										1				
	1995	10	9	15	35	53.9	4	1	2252	8			"n"	"MEXICO"	"COLIMA"	"MAJAGUA"	19.1	-104.41	22.142									4.4		5														
	1995	10	9	15	35	53.9	4	1	2252	8			"n"	"MEXICO"	"JALISCO"	"CUASTECOMATE"	19.23	-104.713	56.845									4.4	30	5										1				
	1995	10	9	15	35	53.9	4	1	2252	8			"n"	"MEXICO"		"CUYUTLAN"	18.917	-104.067	21.083									2.7		1														
	1995	10	9	15	35	53.9	4	1	2252	8			"n"	"MEXICO"	"COLIMA"	"SANTIAGO BAY - SOUTH"	19.07	-104.31	11.176									3.79		5														
	1995	10	9	15	35	53.9	4	1	2252	8			"n"	"MEXICO"	"JALISCO"	"BARRA DE NAVIDAD"	19.2	-104.68	52.49									5.1	25	5			1	1						1		1		
	1995	10	18	10	37	26.3	4	1	2253	7.1			"n"	"JAPAN"	"MIYAZAKI"	"ABURATSU"	31.583	131.417	422.467									0.13		2														
	1995	10	18	10	37	26.3	4	1	2253	7.1			"n"	"JAPAN"	"OKINAWA"	"HIRARA"	24.8	125.283	598.702									0.05		2														
	1995	10	18	10	37	26.3	4	1	2253	7.1			"n"	"JAPAN"	"KAGOSHIMA"	"ARAKI, KIKAI ISLAND"	28.293	129.92	47.487									0.8		1														
	1995	10	18	10	37	26.3	4	1	2253	7.1			"n"	"JAPAN"	"KAGOSHIMA"	"KERAJI, KIKAI ISLAND"	28.287	129.978	44.145									1.43		1														
	1995	10	18	10	37	26.3	4	1	2253	7.1			"n"	"JAPAN"	"KAGOSHIMA"	"ADEN, KIKAI ISLAND"	28.302	129.988	45.236									0.85		1														
	1995	10	18	10	37	26.3	4	1	2253	7.1			"n"	"JAPAN"	"KAGOSHIMA"	"SHISHIOKE, KIKAI ISLAND"	28.354	130.028	49.263									1.4		1														
	1995	10	18	10	37	26.3	4	1	2253	7.1			"n"	"JAPAN"	"CHIBA"	"MERA"	34.9189	139.825	1199.888									0.22		2														
	1995	10	18	10	37	26.3	4	1	2253	7.1			"n"	"JAPAN"	"KAGOSHIMA"	"MAKURAZAKI"	31.267	130.3	370.201									0.29		2														
	1995	10	18	10	37	26.3	4	1	2253	7.1			"n"	"JAPAN"	"KOCHI"	"KOCHI"	33.55	133.55	701.872									0.05		2														
	1995	10	18	10	37	26.3	4	1	2253	7.1			"n"	"JAPAN"	"KAGOSHIMA"	"SOUMACHI, KIKAI ISLAND"	28.334	130.003	47.958									1.37		1														
	1995	10	18	10	37	26.3	4	1	2253	7.1			"n"	"JAPAN"	"KAGOSHIMA"	"NISHINOOMOTE"	30.733	131	320.959									0.19		2														
	1995	10	18	10	37	26.3	4	1	2253	7.1			"n"	"JAPAN"	"MIE"	"OWASE"	34.083	136.2	892.099									0.06		2														
	1995	10	18	10	37	26.3	4	1	2253	7.1			"n"	"JAPAN"	"KAGOSHIMA"	"KODAMA, AMAMI ISLAND"	28.234	129.432	80.47									1.07		1														
	1995	10	18	10	37	26.3	4	1	2253	7.1			"n"	"JAPAN"	"KAGOSHIMA"	"URABARU, KIKAI ISLAND"	28.281	129.968	43.994									2.59		1														
	1995	10	18	10	37	26.3	4	1	2253	7.1			"n"	"JAPAN"	"KAGOSHIMA"	"NAKANO ISLAND"	29.85	129.85	215.259									0.43																
	1995	10	18	10	37	26.3	4	1	2253	7.1			"n"	"JAPAN"	"MIE"	"TOBA"	34.483	136.817	963.149									0.05		2														
	1995	10	18	10	37	26.3	4	1	2253	7.1			"n"	"JAPAN"	"MIYAZAKI"	"HOSOSHIMA"	32.433	131.667	519.54									0.07		2														
	1995	10	18	10	37	26.3	4	1	2253	7.1			"n"	"JAPAN"	"TOKYO"	"OKADA"	34.783	139.383	1158.757									0.27		2														
	1995	10	18	10	37	26.3	4	1	2253	7.1			"n"	"JAPAN"	"KAGOSHIMA"	"ONOTSU, KIKAI ISLAND"	28.356	130.005	50.181									0.65		1														
	1995	10	18	10	37	26.3	4	1	2253	7.1			"n"	"JAPAN"	"KAGOSHIMA"	"ISHI, AMAMI ISLAND"	28.223	129.45	78.357									1.06		1														
	1995	10	18	10	37	26.3	4	1	2253	7.1			"n"	"JAPAN"	"KAGOSHIMA"	"KAGOSHIMA"	31.583	130.567	406.81									0.02		2														
	1995	10	18	10	37	26.3	4	1	2253	7.1			"n"	"JAPAN"	"WAKAYAMA"	"KUSHIMOTO"	33.467	135.783	815.532									0.11		2														
	1995	10	18	10	37	26.3	4	1	2253	7.1			"n"	"JAPAN"	"TOKYO"	"YAENE, HACHIJO ISLAND"	33.1	139.767	1083.793									0.18		2														
	1995	10	18	10	37	26.3	4	1	2253	7.1			"n"	"JAPAN"	"KAGOSHIMA"	"SEKKO, AMAMI ISLAND"	28.161	129.385	81.818									2.34		1														
	1995	10	18	10	37	26.3	4	1	2253	7.1			"n"	"JAPAN"	"IZU-OSHIMA, TOKYO"	"KOZUSHIMA"	34.217	139.133	1102.229									0.23		2														
	1995	10	18	10	37	26.3	4	1	2253	7.1			"n"	"JAPAN"	"KAGOSHIMA"	"NAZE"	28.383	129.5	83.228									0.15		2														
	1995	10	18	10	37	26.3	4	1	2253	7.1			"n"	"JAPAN"	"TOKYO"	"KAMINATO, HACHIJO ISLAND"	33.133	139.8	1088.273									0.11		2														
	1995	10	18	10	37	26.3	4	1	2253	7.1			"n"	"JAPAN"	"TOKYO"	"YAENE, HACHIJO ISLAND"	33.1	139.767	1083.793									0.18		2														
	1995	10	18	10	37	26.3	4	1	2253	7.1			"n"	"JAPAN"	"KAGOSHIMA"	"KOWASE, AMAMI ISLAND"	28.293	129.467	80.418									2.38		1														
	1995	10	18	10	37	26.3	4	1	2253	7.1			"n"	"JAPAN"	"KOCHI"	"MUROTOMISAKI"	33.267	134.167	704.661									0.12		2														
	1995	10	18	10	37	26.3	4	1	2253	7.1			"n"	"JAPAN"	"SHIZUOKA"	"UCHIURA"	35.017	138.883	1140.27									0.05		2														
	1995	10	18	10	37	26.3	4	1	2253	7.1			"n"	"JAPAN"	"KOCHI"	"TOSA-SHIMIZU"	32.7792	132.9589	600.544									0.18		2														
	1995	10	18	10	37	26.3	4	1	2253	7.1			"n"	"JAPAN"	"OKINAWA"	"NAHA"	26.217	127.667	312.828									0.05		2														
	1995	10	18	10	37	26.3	4	1	2253	7.1			"n"	"JAPAN"	"SHIZUOKA"	"MINAMI-IZU"	34.617	138.883	1111.556									0.2		2														
	1995	10	18	10	37	26.3	4	1	2253	7.1			"n"	"JAPAN"	"KAGOSHIMA"	"KOMINATO, AMAMI ISLAND"	28.315	129.538	75.808									1.35		1														
	1995	10	18	10	37	26.3	4	1	2253	7.1			"n"	"JAPAN"	"KAGOSHIMA"	"SHIRO, AMAMI ISLAND"	28.29	129.458	81.02									1.41		1														
	1995	10	18	10	37	26.3	4	1	2253	7.1			"n"	"JAPAN"	"BONIN IS, TOKYO"	"CHICHIJIMA ISLAND"	27.0939	142.1947	1190.685									0.2		2														
	1995	10	18	10	37	26.3	4	1	2253	7.1			"n"	"JAPAN"	"CHIBA"	"CHOSHI"	35.75	140.867	1331.21									0.04		2														
	1995	10	18	10	37	26.3	4	1	2253	7.1			"n"	"JAPAN"	"SHIZUOKA"	"OMAEZAKI"	34.6083	138.2222	1064.946									0.06		2														
	1995	10	18	10	37	26.3	4	1	2253	7.1			"n"	"JAPAN"	"WAKAYAMA"	"URAGAMI"	33.55	135.9	829.671									0.06		2														
	1995	10	18	10	37	26.3	4	1	2253	7.1			"n"	"JAPAN"	"KAGOSHIMA"	"KAMIKATETSU, KIKAI ISLAND"	28.274	129.95	44.166									2.29		1														
	1995	10	18	10	37	26.3	4	1	2253	7.1			"n"	"JAPAN"	"KAGOSHIMA"	"SAKAMINE, KIKAI ISLAND"	28.338	129.975	49.401									0.65		1														
	1995	10	19	2	41	36.1	4	3	2254	6.8			"n"	"JAPAN"	"KOCHI"	"MUROTOMISAKI"	33.267	134.167	690.642									0.06		2														
	1995	10	19	2	41	36.1	4	3	2254	6.8			"n"	"JAPAN"	"KOCHI"	"KOCHI"	33.55	133.55	686.784									0.04		2														
	1995	10	19	2	41	36.1	4	3	2254	6.8			"n"	"JAPAN"	"OKINAWA"	"RYUKYU ISLAND"	26	126	472.387									1.5																
	1995	10	19	2	41	36.1	4	3	2254	6.8			"n"	"JAPAN"	"CHIBA"	"MERA"	34.9189	139.825	1189.554									0.16		2														
	1995	10	19	2	41	36.1	4	3	2254	6.8			"n"	"JAPAN"	"SHIZUOKA"	"MINAMI-IZU"	34.617	138.883	1100.863									0.12		2														
	1995	10	19	2	41	36.1	4	3	2254	6.8			"n"	"JAPAN"	"BONIN IS, TOKYO"	"CHICHIJIMA ISLAND"	27.0939	142.1947	1194.003									0.09		2														
	1995	10	19	2	41	36.1	4	3	2254	6.8			"n"	"JAPAN"	"KAGOSHIMA"	"NISHINOOMOTE"	30.733	131	303.972									0.08		2														
	1995	10	19	2	41	36.1	4	3	2254	6.8			"n"	"JAPAN"	"SHIZUOKA"	"OMAEZAKI"	34.6083	138.2222	1053.723									0.05		2														
	1995	10	19	2	41	36.1	4	3	2254	6.8			"n"	"JAPAN"	"KOCHI"	"TOSA-SHIMIZU"	32.7792	132.9589	585.322									0.1		2														
	1995	10	19	2	41	36.1	4	3	2254	6.8			"n"	"JAPAN"	"MIE"	"OWASE"	34.083	136.2	879.572									0.04		2														
	1995	10	19	2	41	36.1	4	3	2254	6.8			"n"	"JAPAN"	"WAKAYAMA"	"KUSHIMOTO"	33.467	135.783	803.296									0.06		2														
	1995	10	19	2	41	36.1	4	3	2254	6.8			"n"	"JAPAN"	"KAGOSHIMA"	"NAKANO ISLAND"	29.85	129.85	196.782									0.25		2														
	1995	10	19	2	41	36.1	4	3	2254	6.8			"n"	"JAPAN"	"IZU-OSHIMA, TOKYO"	"KOZUSHIMA"	34.217	139.133	1092.223									0.17		2														
	1995	10	19	2	41	36.1	4	3	2254	6.8			"n"	"JAPAN"	"TOKYO"	"KAMINATO, HACHIJO ISLAND"	33.133	139.8	1080.267									0.11		2														
	1995	10	19	2	41	36.1	4	3	2254	6.8			"n"	"JAPAN"	"TOKYO"	"OKADA"	34.783	139.383	1148.255									0.2		2														
	1995	10	19	2	41	36.1	4	3	2254	6.8			"n"	"JAPAN"	"TOKYO"	"YAENE, HACHIJO ISLAND"	33.1	139.767	1075.812									0.15		2														
	1995	11	1	0	35	32.7	4	1	2255	6.7			"n"	"CHILE"	"COPIAPO"	"CALDERA"	-27.067	-70.833	211.738									0.1																
	1995	11	22	4	15	11.9	4	1	2256	7.2			"n"	"JORDAN"		"AQABA PORT"	29.52	35	79.368											1										1				
	1995	11	22	4	15	11.9	4	1	2256	7.2			"n"	"ISRAEL"		"ARDAG"	29.54	34.93	80.158									1		1														
	1995	11	22	4	15	11.9	4	1	2256	7.2			"n"	"EGYPT"		"TABA"	29.49	34.89	74.127											1														
	1995	11	22	4	15	11.9	4	1	2256	7.2			"n"	"ISRAEL"		"ELAT NAVY PORT"	29.544	34.95	80.926									0.25		2														
	1995	11	22	4	15	11.9	4	1	2256	7.2			"n"	"EGYPT"		"B/W NUWEIBA AND DAHAB"	28.75	34.62	19.401										50	1														
	1995	11	22	4	15	11.9	4	1	2256	7.2			"n"	"EGYPT"		"NUWEIBA HARBOR"	28.975	34.66	21.366									4		1										1				
	1995	11	22	4	15	11.9	4	1	2256	7.2			"n"	"EGYPT"		"WESTERN SHORELINES OF GULF ELAT"	29.27	34.72	49.809											1										1		1		
	1995	12	3	18	1	8.9	4	1	2257	7.9			"n"	"USA TERRITORY"	"AS"	"PAGO PAGO, AMERICAN SAMOA"	-14.2766	-170.689	7678.191									0.05		2														
	1995	12	3	18	1	8.9	4	1	2257	7.9			"n"	"USA"	"AK"	"SHEMYA ISLAND, AK"	52.731	174.103	2020.47									0.1		2														
	1995	12	3	18	1	8.9	4	1	2257	7.9			"n"	"USA"	"OR"	"CHARLESTON, OR"	43.352	-124.192	6585.697									0.02		2														
	1995	12	3	18	1	8.9	4	1	2257	7.9			"n"	"CANADA"	"BC"	"PORT ALBERNI, BRITISH COLUMBIA"	49.233	-124.817	6194.327	4	3	11	9	10	4	9	1	0.19		2	100	"R"												
	1995	12	3	18	1	8.9	4	1	2257	7.9			"n"	"JAPAN"	"HOKKAIDO"	"NEMUROKO"	43.35	145.583	331.835									0.19		2														
	1995	12	3	18	1	8.9	4	1	2257	7.9			"n"	"USA"	"CA"	"PORT SAN LUIS, CA"	35.17666	-120.755	7364.914									0.07		2														
	1995	12	3	18	1	8.9	4	1	2257	7.9			"n"	"JAPAN"	"HOKKAIDO"	"HAKODATE"	41.7187	140.7247	769.472									0.09		2														
	1995	12	3	18	1	8.9	4	1	2257	7.9			"n"	"CANADA"	"BC"	"WINTER HARBOR, BRITISH COLUMBIA"	50.513	-128.028	5923.377	4	3	14	9	13	4	15	6	0.06		2	25	"R"												
	1995	12	3	18	1	8.9	4	1	2257	7.9			"n"	"FRENCH POLYNESIA"		"PAPEETE, TAHITI"	-17.5331	-149.5726	9253.22									0.04		2														
	1995	12	3	18	1	8.9	4	1	2257	7.9			"n"	"USA"	"CA"	"POINT REYES, CA"	37.997	-122.975	7015.737									0.03		2														
	1995	12	3	18	1	8.9	4	1	2257	7.9			"n"	"JAPAN"	"BONIN IS, TOKYO"	"CHICHIJIMA ISLAND"	27.0939	142.1947	2050.255									0.23		2														
	1995	12	3	18	1	8.9	4	1	2257	7.9			"n"	"JAPAN"	"CHIBA"	"MERA"	34.9189	139.825	1350.417									0.12		2														
	1995	12	3	18	1	8.9	4	1	2257	7.9			"n"	"JAPAN"	"HOKKAIDO"	"URAKAWA"	42.167	142.767	597.116									0.19		2														
